[{"Amount":null,"Area":"Nashville","Categories":"Venture Capital","Country":"USA","Founded":2012,"Funding Total":0,"Latitude":36.16223,"Longitude":-86.774353,"Name":"1417","Status":"operating","Type":"equity_crowdfunding","Url":"http://1417power.com","Year":2015},{"Amount":null,"Area":"Beijing","Categories":"FinTech and Financial Technology","Country":"CHN","Founded":2005,"Funding Total":9478511,"Latitude":39.905963,"Longitude":116.391248,"Name":"19pay","Status":"operating","Type":"undisclosed","Url":"http://www.19pay.com.cn","Year":2006},{"Amount":92582,"Area":"Las Palmas De Gran Canaria","Categories":"Crowdfunding, Social Fundraising, and Social Investing","Country":"ESP","Founded":2013,"Funding Total":761234,"Latitude":28.12878,"Longitude":-15.435051,"Name":"1mpact Revolution - Powering Helpfreely.org","Status":"operating","Type":"seed","Url":"http://www.1mpactrevolution.com","Year":2013},{"Amount":10000000,"Area":"Miami","Categories":"Financial Services|FinTech and Financial Technology","Country":"USA","Founded":2007,"Funding Total":10000000,"Latitude":25.774266,"Longitude":-80.193659,"Name":"1st Merchant Funding","Status":"operating","Type":"debt_financing","Url":"https://www.1stmerchantfunding.com/","Year":2014},{"Amount":5050000,"Area":"SF Bay Area","Categories":"Bitcoin","Country":"USA","Founded":2013,"Funding Total":121050000,"Latitude":37.7833,"Longitude":-122.4167,"Name":"21 Inc","Status":"operating","Type":"venture","Url":"https://21.co","Year":2013},{"Amount":400000,"Area":"Chicago","Categories":"Crowdfunding, Social Fundraising, and Social Investing","Country":"USA","Founded":2007,"Funding Total":400000,"Latitude":41.875555,"Longitude":-87.624421,"Name":"24Fundraiser.com","Status":"operating","Type":"seed","Url":"http://www.24Fundraiser.com","Year":2014},{"Amount":2000000,"Area":"Moscow","Categories":"Credit, Credit Cards, and Consumer Lending","Country":"RUS","Founded":2012,"Funding Total":8300000,"Latitude":55.751634,"Longitude":37.618704,"Name":"2can","Status":"operating","Type":"venture","Url":"http://2can.ru","Year":2012},{"Amount":500000,"Area":"Chicago","Categories":"FinTech and Financial Technology","Country":"USA","Founded":2013,"Funding Total":500000,"Latitude":41.875555,"Longitude":-87.624421,"Name":"312 Capital","Status":"operating","Type":"equity_crowdfunding","Url":"http://www.312capital.com/","Year":2014},{"Amount":null,"Area":"Frankfurt","Categories":"FinTech and Financial Technology","Country":"DEU","Founded":2000,"Funding Total":0,"Latitude":50.110653,"Longitude":8.682093,"Name":"360T","Status":"acquired","Type":"undisclosed","Url":"http://www.360t.com","Year":2012},{"Amount":null,"Area":"Detroit","Categories":"Point of Sale","Country":"USA","Founded":2009,"Funding Total":0,"Latitude":42.348664,"Longitude":-83.056737,"Name":"365 Retail Markets","Status":"operating","Type":"debt_financing","Url":"http://www.365retailmarkets.com","Year":2013},{"Amount":25000,"Area":"SF Bay Area","Categories":"Bitcoin","Country":"USA","Founded":2014,"Funding Total":525000,"Latitude":37.7833,"Longitude":-122.4167,"Name":"37coins","Status":"operating","Type":"seed","Url":"http://www.37coins.com","Year":2014},{"Amount":140000,"Area":"Phoenix","Categories":"Venture Capital","Country":"USA","Founded":2014,"Funding Total":140000,"Latitude":33.446768,"Longitude":-112.075672,"Name":"3DT","Status":"operating","Type":"equity_crowdfunding","Url":"http://3dtinc.com/","Year":2014},{"Amount":25458897,"Area":"Blackrock","Categories":"Payments and Mobile Payments","Country":"IRL","Founded":2004,"Funding Total":50958897,"Latitude":53.301864,"Longitude":-6.178834,"Name":"3V Transaction Services","Status":"acquired","Type":"venture","Url":"http://www.3vcorporate.com","Year":2006},{"Amount":50000,"Area":"Atlanta","Categories":"Crowdfunding, Social Fundraising, and Social Investing|FinTech and Financial Technology|Venture Capital","Country":"USA","Founded":2008,"Funding Total":1050000,"Latitude":33.749099,"Longitude":-84.390185,"Name":"40billion.com","Status":"operating","Type":"seed","Url":"http://www.40Billion.com","Year":2008},{"Amount":22000,"Area":"Sarasota - Bradenton","Categories":"Investment Management, Wealth Management, and Hedge Funds|Venture Capital","Country":"USA","Founded":null,"Funding Total":22000,"Latitude":27.395988,"Longitude":-82.554074,"Name":"4FRONT PARTNERS","Status":"operating","Type":"venture","Url":"","Year":2014},{"Amount":null,"Area":"Paris","Categories":"Venture Capital","Country":"FRA","Founded":2012,"Funding Total":0,"Latitude":48.856506,"Longitude":2.352133,"Name":"50 Partners","Status":"operating","Type":"seed","Url":"http://www.50partners.fr","Year":2012},{"Amount":200000,"Area":"Edinburgh","Categories":"Accounting","Country":"GBR","Founded":2009,"Funding Total":1300000,"Latitude":55.948354,"Longitude":-3.193119,"Name":"60mo","Status":"acquired","Type":"seed","Url":"http://60mo.com","Year":2009},{"Amount":8000000,"Area":"Hong Kong","Categories":"FinTech and Financial Technology|Personal Finance|Investment Management, Wealth Management, and Hedge Funds","Country":"HKG","Founded":2012,"Funding Total":17000000,"Latitude":22.279328,"Longitude":114.162813,"Name":"8 Securities","Status":"operating","Type":"venture","Url":"http://www.8securities.com","Year":2012},{"Amount":150000,"Area":"Singapore","Categories":"Payments and Mobile Payments","Country":"SGP","Founded":2013,"Funding Total":150000,"Latitude":1.290453,"Longitude":103.852038,"Name":"8villages","Status":"operating","Type":"convertible_note","Url":"http://www.8villages.com","Year":2013},{"Amount":2000000,"Area":"Shanghai","Categories":"Payments and Mobile Payments","Country":"CHN","Founded":2005,"Funding Total":83574271,"Latitude":31.225344,"Longitude":121.488892,"Name":"99Bill","Status":"acquired","Type":"venture","Url":"http://www.99bill.com","Year":2005},{"Amount":100000,"Area":"SF Bay Area","Categories":"Trading, Brokers, and Financial Exchanges","Country":"USA","Founded":2012,"Funding Total":100000,"Latitude":37.7833,"Longitude":-122.4167,"Name":"99Gamers","Status":"operating","Type":"seed","Url":"http://www.99gamers.com","Year":2014},{"Amount":null,"Area":"Sao Paulo","Categories":"Payments and Mobile Payments","Country":"BRA","Founded":2013,"Funding Total":25000000,"Latitude":-21.954981,"Longitude":-49.023235,"Name":"99Taxis","Status":"operating","Type":"seed","Url":"http://www.99taxis.com","Year":2013},{"Amount":null,"Area":"Berlin","Categories":"Point of Sale","Country":"DEU","Founded":2012,"Funding Total":0,"Latitude":52.517037,"Longitude":13.38886,"Name":"9Cookies","Status":"acquired","Type":"seed","Url":"http://www.9cookies.com/","Year":2013},{"Amount":20000,"Area":"SF Bay Area","Categories":"Point of Sale","Country":"USA","Founded":2014,"Funding Total":20000,"Latitude":37.7833,"Longitude":-122.4167,"Name":"A1 Software Group Inc (Selly Automotive)","Status":"operating","Type":"seed","Url":"http://www.a1softwaregroup.com","Year":2014},{"Amount":160000,"Area":"Chicago","Categories":"Venture Capital","Country":"USA","Founded":2009,"Funding Total":160000,"Latitude":41.875555,"Longitude":-87.624421,"Name":"AALegal Cash Advance","Status":"operating","Type":"debt_financing","Url":"","Year":2013},{"Amount":470000,"Area":"Philadelphia","Categories":"Financial Services|FinTech and Financial Technology|Personal Finance","Country":"USA","Founded":2014,"Funding Total":720000,"Latitude":39.952399,"Longitude":-75.16359,"Name":"Abaris","Status":"operating","Type":"angel","Url":"https://www.myabaris.com","Year":2014},{"Amount":0,"Area":"Detroit","Categories":"Financial Services|FinTech and Financial Technology|Venture Capital","Country":"USA","Founded":2011,"Funding Total":0,"Latitude":42.348664,"Longitude":-83.056737,"Name":"ABARIS Investment Management","Status":"operating","Type":"equity_crowdfunding","Url":"http://www.abarisllc.com/","Year":2014},{"Amount":6690000,"Area":"Chicago","Categories":"Venture Capital","Country":"USA","Founded":1991,"Funding Total":6790000,"Latitude":41.875555,"Longitude":-87.624421,"Name":"Abbott Labs","Status":"ipo","Type":"debt_financing","Url":"http://www.abbott.com","Year":2009},{"Amount":500000,"Area":"Chicago","Categories":"Accounting","Country":"USA","Founded":1998,"Funding Total":500000,"Latitude":41.875555,"Longitude":-87.624421,"Name":"aBIZinaBOX","Status":"operating","Type":"seed","Url":"http://abizinabox.com","Year":2008},{"Amount":1500000,"Area":"Austin","Categories":"Credit, Credit Cards, and Consumer Lending|FinTech and Financial Technology","Country":"USA","Founded":2014,"Funding Total":17500000,"Latitude":30.271129,"Longitude":-97.743699,"Name":"Able Lending","Status":"operating","Type":"venture","Url":"https://www.ablelending.com/","Year":2011},{"Amount":null,"Area":"Austin","Categories":"Financial Services","Country":"USA","Founded":null,"Funding Total":0,"Latitude":30.271129,"Longitude":-97.743699,"Name":"Abound Resources","Status":"operating","Type":"venture","Url":"http://www.aboundresources.com/","Year":2005},{"Amount":null,"Area":"SF Bay Area","Categories":"Personal Finance","Country":"USA","Founded":2013,"Funding Total":3000000,"Latitude":37.7833,"Longitude":-122.4167,"Name":"aboutLife","Status":"operating","Type":"venture","Url":"https://aboutlife.com","Year":2015},{"Amount":2000000,"Area":"SF Bay Area","Categories":"Financial Services","Country":"USA","Founded":2014,"Funding Total":14000000,"Latitude":37.7833,"Longitude":-122.4167,"Name":"Abra","Status":"operating","Type":"seed","Url":"http://goabra.com","Year":2015},{"Amount":3300,"Area":"SF Bay Area","Categories":"Bitcoin|Trading, Brokers, and Financial Exchanges","Country":"USA","Founded":2014,"Funding Total":3300,"Latitude":37.7833,"Longitude":-122.4167,"Name":"Acacia Trading","Status":"operating","Type":"seed","Url":"https://www.tradeacacia.com/","Year":2014},{"Amount":4000000,"Area":"Chicago","Categories":"Credit, Credit Cards, and Consumer Lending|Fraud Detection","Country":"USA","Founded":2007,"Funding Total":7131124,"Latitude":41.875555,"Longitude":-87.624421,"Name":"Accertify","Status":"acquired","Type":"venture","Url":"http://www.accertify.com","Year":2008},{"Amount":null,"Area":"Lake Tahoe","Categories":"Payments and Mobile Payments","Country":"USA","Founded":2014,"Funding Total":0,"Latitude":29.382572,"Longitude":-98.377866,"Name":"ACCESS Bill Pay Services","Status":"operating","Type":"equity_crowdfunding","Url":"http://www.accessbillpayservices.com","Year":2014},{"Amount":1000000,"Area":"Boston","Categories":"Financial Services|Crowdfunding, Social Fundraising, and Social Investing","Country":"USA","Founded":1961,"Funding Total":23000000,"Latitude":42.360482,"Longitude":-71.059568,"Name":"Accion","Status":"operating","Type":"venture","Url":"http://www.accion.org","Year":2011},{"Amount":3500000,"Area":"SF Bay Area","Categories":"Credit, Credit Cards, and Consumer Lending|Financial Services|Personal Finance","Country":"USA","Founded":2003,"Funding Total":34072000,"Latitude":37.7833,"Longitude":-122.4167,"Name":"AccountNow","Status":"operating","Type":"venture","Url":"http://accountnow.com","Year":2004},{"Amount":null,"Area":"Stockholm","Categories":"Payments and Mobile Payments","Country":"SWE","Founded":2005,"Funding Total":12050000,"Latitude":59.325117,"Longitude":18.071094,"Name":"Accumulate","Status":"operating","Type":"angel","Url":"http://www.accumulate.se","Year":2008},{"Amount":75000,"Area":"New York City","Categories":"FinTech and Financial Technology","Country":"USA","Founded":2010,"Funding Total":75000,"Latitude":40.730599,"Longitude":-73.986581,"Name":"ACE Portal","Status":"operating","Type":"venture","Url":"http://www.ACEportal.com","Year":2011},{"Amount":null,"Area":"London","Categories":"Gift Card","Country":"GBR","Founded":2010,"Funding Total":13274403,"Latitude":51.507322,"Longitude":-0.127647,"Name":"ACHICA","Status":"operating","Type":"undisclosed","Url":"http://www.achica.com","Year":2010},{"Amount":12500000,"Area":"Austin","Categories":"P2P Money Transfer","Country":"USA","Founded":null,"Funding Total":12500000,"Latitude":30.271129,"Longitude":-97.743699,"Name":"Achieve Financial Services","Status":"operating","Type":"venture","Url":"http://www.achievecard.com","Year":2012},{"Amount":300000,"Area":"Anaheim","Categories":"FinTech and Financial Technology","Country":"USA","Founded":2012,"Funding Total":31960000,"Latitude":33.834752,"Longitude":-117.911732,"Name":"Acorns","Status":"operating","Type":"seed","Url":"http://www.acorns.com","Year":2012},{"Amount":null,"Area":"Austin","Categories":"Financial Services|Investment Management, Wealth Management, and Hedge Funds","Country":"USA","Founded":null,"Funding Total":0,"Latitude":30.271129,"Longitude":-97.743699,"Name":"Acorn Systems","Status":"operating","Type":"venture","Url":"","Year":2001},{"Amount":null,"Area":"CA - Other","Categories":"Venture Capital","Country":"USA","Founded":2012,"Funding Total":0,"Latitude":46.017512,"Longitude":-59.971823,"Name":"Action Auto Sales","Status":"operating","Type":"equity_crowdfunding","Url":"http://www.actionautoonline.com/","Year":2014},{"Amount":1700000,"Area":"Seattle","Categories":"Crowdfunding, Social Fundraising, and Social Investing","Country":"USA","Founded":null,"Funding Total":1700000,"Latitude":47.603832,"Longitude":-122.330062,"Name":"ActionSprout","Status":"operating","Type":"venture","Url":"http://actionsprout.com/","Year":2015},{"Amount":250000,"Area":"AB - Other","Categories":"Venture Capital","Country":"CAN","Founded":2010,"Funding Total":250000,"Latitude":39.78373,"Longitude":-100.445882,"Name":"ActionTax.ca","Status":"operating","Type":"equity_crowdfunding","Url":"http://actiontax.ca/","Year":2014},{"Amount":20000,"Area":"Kiev","Categories":"Gift Card","Country":"UKR","Founded":2011,"Funding Total":20000,"Latitude":50.450107,"Longitude":30.52405,"Name":"ActiveGift","Status":"operating","Type":"seed","Url":"http://www.activegift.me","Year":2012},{"Amount":4099999,"Area":"SF Bay Area","Categories":"Financial Services","Country":"USA","Founded":2012,"Funding Total":4099999,"Latitude":37.7833,"Longitude":-122.4167,"Name":"Activehours","Status":"operating","Type":"seed","Url":"https://www.activehours.com","Year":2014},{"Amount":null,"Area":"Seattle","Categories":"Accounting","Country":"USA","Founded":2008,"Funding Total":23300000,"Latitude":47.603832,"Longitude":-122.330062,"Name":"Acumatica","Status":"operating","Type":"undisclosed","Url":"http://www.acumatica.com","Year":2009},{"Amount":250000,"Area":"Asheville","Categories":"Financial Services","Country":"USA","Founded":2014,"Funding Total":250000,"Latitude":35.60095,"Longitude":-82.554016,"Name":"Adamant Energy","Status":"operating","Type":"venture","Url":"http://adamantenergy.com/","Year":2015},{"Amount":5000000,"Area":"SF Bay Area","Categories":"Financial Services","Country":"USA","Founded":null,"Funding Total":22500000,"Latitude":37.7833,"Longitude":-122.4167,"Name":"Adaptive Planning","Status":"operating","Type":"venture","Url":"http://www.adaptiveplanning.com/","Year":2005},{"Amount":20000000,"Area":"Indianapolis","Categories":"FinTech and Financial Technology","Country":"USA","Founded":2001,"Funding Total":20000000,"Latitude":39.768333,"Longitude":-86.15835,"Name":"Adayana","Status":"operating","Type":"venture","Url":"http://www.adayana.com","Year":2007},{"Amount":4000000,"Area":"SF Bay Area","Categories":"Auctions","Country":"USA","Founded":2003,"Funding Total":40400000,"Latitude":37.7833,"Longitude":-122.4167,"Name":"adBrite","Status":"acquired","Type":"venture","Url":"http://adbrite.com","Year":2004},{"Amount":110000,"Area":"SF Bay Area","Categories":"Auctions","Country":"USA","Founded":2010,"Funding Total":110000,"Latitude":37.7833,"Longitude":-122.4167,"Name":"Addoway","Status":"operating","Type":"seed","Url":"http://www.addoway.com","Year":2010},{"Amount":1800000,"Area":"Copenhagen","Categories":"Gift Card","Country":"DNK","Founded":2013,"Funding Total":1800000,"Latitude":55.686724,"Longitude":12.570072,"Name":"addwish","Status":"operating","Type":"seed","Url":"http://addwish.com","Year":2013},{"Amount":null,"Area":"Birmingham","Categories":"Auctions","Country":"GBR","Founded":2007,"Funding Total":0,"Latitude":52.481368,"Longitude":-1.898073,"Name":"adflyer","Status":"operating","Type":"angel","Url":"http://www.adflyer.co.uk","Year":2009},{"Amount":60000,"Area":"Denver","Categories":"Financial Services","Country":"USA","Founded":2014,"Funding Total":60000,"Latitude":39.739154,"Longitude":-104.984703,"Name":"Adherence Compliance","Status":"closed","Type":"seed","Url":"http://www.adherence-corp.com","Year":2015},{"Amount":30000,"Area":"SF Bay Area","Categories":"Financial Services","Country":"USA","Founded":null,"Funding Total":30000,"Latitude":37.7833,"Longitude":-122.4167,"Name":"Adhusky","Status":"operating","Type":"seed","Url":"http://www.adhusky.com/","Year":2015},{"Amount":2800000,"Area":"Hartford","Categories":"Auctions","Country":"USA","Founded":2010,"Funding Total":8802628,"Latitude":41.765558,"Longitude":-72.690613,"Name":"ADmantX","Status":"operating","Type":"venture","Url":"http://www.admantx.com","Year":2011},{"Amount":7000000,"Area":"New York City","Categories":"Auctions","Country":"USA","Founded":2007,"Funding Total":30000000,"Latitude":40.730599,"Longitude":-73.986581,"Name":"Admeld","Status":"acquired","Type":"venture","Url":"http://www.admeld.com","Year":2008},{"Amount":367645000,"Area":"Los Angeles","Categories":"Investment Management, Wealth Management, and Hedge Funds","Country":"USA","Founded":2010,"Funding Total":367645000,"Latitude":34.054394,"Longitude":-118.243941,"Name":"ADMI Holdings","Status":"operating","Type":"venture","Url":"","Year":2010},{"Amount":null,"Area":"Paris","Categories":"Financial Services","Country":"FRA","Founded":1999,"Funding Total":0,"Latitude":48.856506,"Longitude":2.352133,"Name":"Adomos","Status":"operating","Type":"undisclosed","Url":"http://www.adomos.com/","Year":2004},{"Amount":null,"Area":"Paris","Categories":"Auctions","Country":"FRA","Founded":2010,"Funding Total":0,"Latitude":48.856506,"Longitude":2.352133,"Name":"AdQuantic","Status":"acquired","Type":"angel","Url":"http://www.adquantic.com","Year":2013},{"Amount":0,"Area":"Lansing","Categories":"Venture Capital","Country":"USA","Founded":2011,"Funding Total":0,"Latitude":42.733771,"Longitude":-84.55538,"Name":"Advantage Capital Management","Status":"operating","Type":"equity_crowdfunding","Url":"","Year":2014},{"Amount":1100000,"Area":"London","Categories":"FinTech and Financial Technology","Country":"GBR","Founded":2013,"Funding Total":1670000,"Latitude":51.507322,"Longitude":-0.127647,"Name":"AdviceGames","Status":"operating","Type":"seed","Url":"http://www.advicegames.com/","Year":2013},{"Amount":null,"Area":"SF Bay Area","Categories":"FinTech and Financial Technology|Investment Management, Wealth Management, and Hedge Funds","Country":"USA","Founded":null,"Funding Total":0,"Latitude":37.7833,"Longitude":-122.4167,"Name":"AdviseHub","Status":"operating","Type":"seed","Url":"http://advisehub.com/","Year":2014},{"Amount":1313100,"Area":"Milan","Categories":"Investment Management, Wealth Management, and Hedge Funds|Stock Exchanges|Investment Management, Wealth Management, and Hedge Funds","Country":"ITA","Founded":2010,"Funding Total":1313100,"Latitude":45.466797,"Longitude":9.190498,"Name":"Advise Only","Status":"operating","Type":"venture","Url":"http://www.adviseonly.com","Year":2012},{"Amount":550000,"Area":"New York City","Categories":"Financial Services|Insurance Companies","Country":"USA","Founded":null,"Funding Total":550000,"Latitude":40.730599,"Longitude":-73.986581,"Name":"advisorCONNECT","Status":"operating","Type":"convertible_note","Url":"http://www.advisorconnect.co/","Year":2015},{"Amount":736050,"Area":"Paris","Categories":"Trading, Brokers, and Financial Exchanges|FinTech and Financial Technology|Trading, Brokers, and Financial Exchanges","Country":"FRA","Founded":2011,"Funding Total":736050,"Latitude":48.856506,"Longitude":2.352133,"Name":"ADVIZE","Status":"operating","Type":"seed","Url":"http://www.advize.fr","Year":2008},{"Amount":1740000,"Area":"New York City","Categories":"Financial Services","Country":"USA","Founded":2012,"Funding Total":1740000,"Latitude":40.730599,"Longitude":-73.986581,"Name":"Advizr","Status":"operating","Type":"seed","Url":"http://www.advizr.com","Year":2015},{"Amount":120000,"Area":"New York City","Categories":"Crowdfunding, Social Fundraising, and Social Investing","Country":"USA","Founded":2015,"Funding Total":120000,"Latitude":40.730599,"Longitude":-73.986581,"Name":"Advocate","Status":"operating","Type":"seed","Url":"http://www.joinadvocate.com/","Year":2015},{"Amount":16000000,"Area":"Amsterdam","Categories":"Payments and Mobile Payments","Country":"NLD","Founded":2006,"Funding Total":266000000,"Latitude":52.374436,"Longitude":4.897996,"Name":"Adyen","Status":"operating","Type":"venture","Url":"http://www.adyen.com","Year":2011},{"Amount":2000000,"Area":"SF Bay Area","Categories":"Auctions","Country":"USA","Founded":2009,"Funding Total":22000000,"Latitude":37.7833,"Longitude":-122.4167,"Name":"Aerospike","Status":"operating","Type":"venture","Url":"http://www.aerospike.com","Year":2011},{"Amount":null,"Area":"Cincinnati","Categories":"Investment Management, Wealth Management, and Hedge Funds","Country":"USA","Founded":null,"Funding Total":0,"Latitude":39.101454,"Longitude":-84.51246,"Name":"AFC Holdings","Status":"operating","Type":"undisclosed","Url":"http://www.afcholdings.com/","Year":2015},{"Amount":6000000,"Area":"Anaheim","Categories":"Financial Services","Country":"USA","Founded":1996,"Funding Total":11000000,"Latitude":33.834752,"Longitude":-117.911732,"Name":"Affinity Financial Corporation","Status":"operating","Type":"debt_financing","Url":"","Year":2006},{"Amount":45000000,"Area":"SF Bay Area","Categories":"Financial Services|FinTech and Financial Technology|Payments and Mobile Payments","Country":"USA","Founded":2012,"Funding Total":320000000,"Latitude":37.7833,"Longitude":-122.4167,"Name":"Affirm","Status":"operating","Type":"venture","Url":"http://affirm.com","Year":2014},{"Amount":775000,"Area":"Buenos Aires","Categories":"Credit, Credit Cards, and Consumer Lending|FinTech and Financial Technology","Country":"ARG","Founded":2012,"Funding Total":2775000,"Latitude":-34.612869,"Longitude":-58.445979,"Name":"Afluenta","Status":"operating","Type":"angel","Url":"http://www.afluenta.com","Year":2011},{"Amount":681350,"Area":"Paris","Categories":"P2P Money Transfer","Country":"FRA","Founded":2013,"Funding Total":3494416,"Latitude":48.856506,"Longitude":2.352133,"Name":"Afrimarket","Status":"operating","Type":"seed","Url":"http://afrimarket.fr","Year":2013},{"Amount":12200000,"Area":"MNE - Other","Categories":"Financial Services","Country":"MNE","Founded":null,"Funding Total":12200000,"Latitude":39.78373,"Longitude":-100.445882,"Name":"Agea","Status":"operating","Type":"venture","Url":"","Year":2001},{"Amount":350000,"Area":"San Diego","Categories":"Risk Management","Country":"USA","Founded":2010,"Funding Total":425000,"Latitude":32.717421,"Longitude":-117.162771,"Name":"Agency for Student Health Research","Status":"operating","Type":"seed","Url":"http://www.injurefree.com/#!about/curv","Year":2014},{"Amount":50000,"Area":"Baltimore","Categories":"Gift Card","Country":"USA","Founded":2012,"Funding Total":50000,"Latitude":39.290861,"Longitude":-76.610807,"Name":"Agiftidea.com","Status":"closed","Type":"angel","Url":"http://www.agiftidea.com","Year":2012},{"Amount":5740000,"Area":"Mumbai","Categories":"FinTech and Financial Technology","Country":"IND","Founded":null,"Funding Total":5740000,"Latitude":18.95238,"Longitude":72.832711,"Name":"Agile","Status":"operating","Type":"venture","Url":"http://www.agile-ft.com","Year":2011},{"Amount":640000,"Area":"London","Categories":"Banking","Country":"GBR","Founded":2011,"Funding Total":640000,"Latitude":51.507322,"Longitude":-0.127647,"Name":"AGILE customer insight","Status":"closed","Type":"seed","Url":"http://www.agile.ci","Year":2011},{"Amount":192050,"Area":"London","Categories":"Financial Services","Country":"GBR","Founded":2014,"Funding Total":427119,"Latitude":51.507322,"Longitude":-0.127647,"Name":"Agio Technologies","Status":"operating","Type":"seed","Url":"http://www.agioapp.com","Year":2014},{"Amount":2000000,"Area":"New York City","Categories":"Trading, Brokers, and Financial Exchanges","Country":"USA","Founded":2010,"Funding Total":2000000,"Latitude":40.730599,"Longitude":-73.986581,"Name":"Agorafy","Status":"operating","Type":"private_equity","Url":"http://www.agorafy.com","Year":2010},{"Amount":1500000,"Area":"Boston","Categories":"FinTech and Financial Technology","Country":"USA","Founded":null,"Funding Total":1500000,"Latitude":42.360482,"Longitude":-71.059568,"Name":"AI Exchange","Status":"closed","Type":"venture","Url":"http://www.aiexchange.com","Year":2011},{"Amount":40000,"Area":"New York City","Categories":"Venture Capital","Country":"USA","Founded":2012,"Funding Total":40000,"Latitude":40.730599,"Longitude":-73.986581,"Name":"AIIeyWatch","Status":"operating","Type":"seed","Url":"http://www.alleywatch.com","Year":2012},{"Amount":5000,"Area":"SF Bay Area","Categories":"Crowdfunding, Social Fundraising, and Social Investing|Financial Services","Country":"USA","Founded":null,"Funding Total":5000,"Latitude":37.7833,"Longitude":-122.4167,"Name":"AimWith","Status":"operating","Type":"seed","Url":"http://aimwith.org","Year":2013},{"Amount":null,"Area":"San Diego","Categories":"Bitcoin","Country":"USA","Founded":2014,"Funding Total":450000,"Latitude":32.717421,"Longitude":-117.162771,"Name":"Airbitz","Status":"operating","Type":"convertible_note","Url":"https://airbitz.co","Year":2015},{"Amount":300000,"Area":"London","Categories":"Credit, Credit Cards, and Consumer Lending|FinTech and Financial Technology","Country":"GBR","Founded":2014,"Funding Total":1400000,"Latitude":51.507322,"Longitude":-0.127647,"Name":"Aire","Status":"operating","Type":"seed","Url":"http://aire.io","Year":2014},{"Amount":null,"Area":"SF Bay Area","Categories":"Financial Services|Venture Capital","Country":"USA","Founded":null,"Funding Total":0,"Latitude":37.7833,"Longitude":-122.4167,"Name":"AirPlug","Status":"operating","Type":"venture","Url":"http://www.airplug.com","Year":2002},{"Amount":30000,"Area":"Belfast","Categories":"Point of Sale","Country":"GBR","Founded":2009,"Funding Total":610540,"Latitude":54.596987,"Longitude":-5.930099,"Name":"AirPOS","Status":"operating","Type":"seed","Url":"http://www.airpointofsale.com","Year":2009},{"Amount":null,"Area":"San Antonio","Categories":"Banking|Payments and Mobile Payments","Country":"USA","Founded":2010,"Funding Total":850000,"Latitude":29.4246,"Longitude":-98.49514,"Name":"Akimbo Financial","Status":"acquired","Type":"equity_crowdfunding","Url":"http://akimbocard.com","Year":2012},{"Amount":null,"Area":"Osaka","Categories":"Payments and Mobile Payments","Country":"JPN","Founded":null,"Funding Total":0,"Latitude":34.685296,"Longitude":135.514568,"Name":"Akippa","Status":"operating","Type":"venture","Url":"http://akippa.com","Year":2014},{"Amount":118000,"Area":"Chicago","Categories":"Investment Management, Wealth Management, and Hedge Funds","Country":"USA","Founded":2014,"Funding Total":118000,"Latitude":41.875555,"Longitude":-87.624421,"Name":"AkoubaCredit","Status":"operating","Type":"seed","Url":"https://akoubacredit.com/","Year":2015},{"Amount":75000,"Area":"Warsaw","Categories":"Financial Services|Personal Finance","Country":"POL","Founded":2014,"Funding Total":818500,"Latitude":52.231924,"Longitude":21.006727,"Name":"Akredo","Status":"operating","Type":"seed","Url":"http://www.akredo.pl","Year":2014},{"Amount":55000,"Area":"Cairo","Categories":"Auctions","Country":"EGY","Founded":2014,"Funding Total":55000,"Latitude":30.048819,"Longitude":31.243666,"Name":"alauna.com","Status":"operating","Type":"angel","Url":"http://www.alauna.com","Year":2014},{"Amount":15000000,"Area":"Panama City","Categories":"Risk Management","Country":"PAN","Founded":2010,"Funding Total":15000000,"Latitude":30.160083,"Longitude":-85.654573,"Name":"Albatross Security Forces","Status":"operating","Type":"private_equity","Url":"http://www.asf.pa","Year":2014},{"Amount":3000000,"Area":"SF Bay Area","Categories":"Financial Services","Country":"USA","Founded":2010,"Funding Total":3000000,"Latitude":37.7833,"Longitude":-122.4167,"Name":"Albeado","Status":"operating","Type":"venture","Url":"http://albeado.com","Year":2015},{"Amount":50000,"Area":"Raleigh","Categories":"Credit, Credit Cards, and Consumer Lending","Country":"USA","Founded":2012,"Funding Total":50000,"Latitude":35.780402,"Longitude":-78.639078,"Name":"Alekto","Status":"closed","Type":"seed","Url":"http://www.alekto.co","Year":2012},{"Amount":200000,"Area":"Toronto","Categories":"Financial Services|Risk Management","Country":"CAN","Founded":null,"Funding Total":200000,"Latitude":43.652921,"Longitude":-79.384901,"Name":"Algorithmics","Status":"acquired","Type":"debt_financing","Url":"http://www.algorithmics.com","Year":2013},{"Amount":null,"Area":"SF Bay Area","Categories":"Bitcoin|Payments and Mobile Payments","Country":"USA","Founded":2014,"Funding Total":12500000,"Latitude":37.7833,"Longitude":-122.4167,"Name":"Align Commerce","Status":"operating","Type":"seed","Url":"https://aligncommerce.com/","Year":2015},{"Amount":50000,"Area":"Boston","Categories":"Financial Services","Country":"USA","Founded":null,"Funding Total":50000,"Latitude":42.360482,"Longitude":-71.059568,"Name":"A Little Easier Recovery","Status":"operating","Type":"seed","Url":"http://www.alittleeasierrecovery.org","Year":2013},{"Amount":3700000,"Area":"Dallas","Categories":"Financial Services|FinTech and Financial Technology","Country":"USA","Founded":2009,"Funding Total":43000000,"Latitude":32.776272,"Longitude":-96.796856,"Name":"Alkami Technology","Status":"operating","Type":"venture","Url":"http://www.alkamitech.com","Year":2011},{"Amount":150000,"Area":"New York City","Categories":"Venture Capital","Country":"USA","Founded":2015,"Funding Total":150000,"Latitude":40.730599,"Longitude":-73.986581,"Name":"AlleyMag","Status":"operating","Type":"seed","Url":"http://www.alleymag.com","Year":2015},{"Amount":600000,"Area":"Minneapolis","Categories":"Gift Card","Country":"USA","Founded":2005,"Funding Total":600000,"Latitude":44.9773,"Longitude":-93.265469,"Name":"Alliance Card","Status":"operating","Type":"debt_financing","Url":"http://www.cashvaluecard.com","Year":2008},{"Amount":65000000,"Area":"Hartford","Categories":"Financial Services","Country":"USA","Founded":null,"Funding Total":65000000,"Latitude":41.765558,"Longitude":-72.690613,"Name":"Alliant Resources Group","Status":"operating","Type":"venture","Url":"","Year":2001},{"Amount":5000000,"Area":"SF Bay Area","Categories":"Investment Management, Wealth Management, and Hedge Funds","Country":"USA","Founded":null,"Funding Total":5000000,"Latitude":37.7833,"Longitude":-122.4167,"Name":"Allotrope Partners","Status":"operating","Type":"venture","Url":"","Year":2014},{"Amount":null,"Area":"Newark","Categories":"Venture Capital","Country":"USA","Founded":2012,"Funding Total":0,"Latitude":40.735657,"Longitude":-74.172367,"Name":"All Protector Agency","Status":"operating","Type":"equity_crowdfunding","Url":"http://www.allprotectoragency.com/","Year":2013},{"Amount":null,"Area":"New York City","Categories":"Point of Sale","Country":"USA","Founded":2009,"Funding Total":0,"Latitude":40.730599,"Longitude":-73.986581,"Name":"Alluring Logic","Status":"closed","Type":"seed","Url":"http://alluringlogic.com","Year":2013},{"Amount":48938,"Area":"SF Bay Area","Categories":"FinTech and Financial Technology|Trading, Brokers, and Financial Exchanges","Country":"USA","Founded":2013,"Funding Total":1244661,"Latitude":37.7833,"Longitude":-122.4167,"Name":"Alpaca","Status":"operating","Type":"angel","Url":"http://www.alpaca.ai/","Year":2014},{"Amount":40000,"Area":"Bangalore","Categories":"Payments and Mobile Payments","Country":"IND","Founded":2010,"Funding Total":40000,"Latitude":12.97912,"Longitude":77.5913,"Name":"AlphaBeta Labs","Status":"operating","Type":"seed","Url":"http://alphabetalabs.com","Year":2012},{"Amount":750000,"Area":"SF Bay Area","Categories":"Stock Exchanges","Country":"USA","Founded":2008,"Funding Total":4269000,"Latitude":37.7833,"Longitude":-122.4167,"Name":"AlphaClone","Status":"operating","Type":"seed","Url":"http://www.alphaclone.com","Year":2008},{"Amount":null,"Area":"Philadelphia","Categories":"Investment Management, Wealth Management, and Hedge Funds","Country":"USA","Founded":2011,"Funding Total":0,"Latitude":39.952399,"Longitude":-75.16359,"Name":"ALPHAHEDGE","Status":"operating","Type":"venture","Url":"http://www.alphahedge.com/default.aspx","Year":2015},{"Amount":12000000,"Area":"Singapore","Categories":"Payments and Mobile Payments","Country":"SGP","Founded":2011,"Funding Total":12000000,"Latitude":1.290453,"Longitude":103.852038,"Name":"Alpha Payments Cloud","Status":"operating","Type":"venture","Url":"http://www.alphapaymentscloud.com","Year":2013},{"Amount":1350000,"Area":"New York City","Categories":"Bitcoin|FinTech and Financial Technology","Country":"USA","Founded":2013,"Funding Total":1350000,"Latitude":40.730599,"Longitude":-73.986581,"Name":"AlphaPoint","Status":"operating","Type":"seed","Url":"http://alphapoint.com","Year":2014},{"Amount":391000,"Area":"New York City","Categories":"Financial Services","Country":"USA","Founded":2006,"Funding Total":391000,"Latitude":40.730599,"Longitude":-73.986581,"Name":"Alpha Theory","Status":"operating","Type":"venture","Url":"https://www.alphatheory.com","Year":2015},{"Amount":1000000,"Area":"Ft. Lauderdale","Categories":"Payments and Mobile Payments","Country":"USA","Founded":null,"Funding Total":1000000,"Latitude":26.122308,"Longitude":-80.143379,"Name":"ALTPAY","Status":"operating","Type":"venture","Url":"http://www.altpayusa.com/","Year":2014},{"Amount":125000,"Area":"Los Angeles","Categories":"Crowdfunding, Social Fundraising, and Social Investing|FinTech and Financial Technology","Country":"USA","Founded":2012,"Funding Total":125000,"Latitude":34.054394,"Longitude":-118.243941,"Name":"AlumniFunder","Status":"operating","Type":"seed","Url":"http://www.alumnifunder.com","Year":2012},{"Amount":null,"Area":"Denver","Categories":"Venture Capital","Country":"USA","Founded":2013,"Funding Total":0,"Latitude":39.739154,"Longitude":-104.984703,"Name":"American Cannabis Company","Status":"ipo","Type":"venture","Url":"http://www.americancannabisconsulting.com/","Year":2014},{"Amount":170000,"Area":"New York City","Categories":"Financial Services|FinTech and Financial Technology|Trading, Brokers, and Financial Exchanges","Country":"USA","Founded":null,"Funding Total":170000,"Latitude":40.730599,"Longitude":-73.986581,"Name":"American Civics Exchange","Status":"operating","Type":"angel","Url":"http://amciv.com","Year":2012},{"Amount":1965000,"Area":"Napa Valley","Categories":"Trading, Brokers, and Financial Exchanges","Country":"USA","Founded":null,"Funding Total":1965000,"Latitude":22.411245,"Longitude":113.980393,"Name":"American TonerServ Corp","Status":"operating","Type":"debt_financing","Url":"","Year":2009},{"Amount":null,"Area":"Bangalore","Categories":"FinTech and Financial Technology","Country":"IND","Founded":2013,"Funding Total":0,"Latitude":12.97912,"Longitude":77.5913,"Name":"Amigobulls","Status":"operating","Type":"seed","Url":"http://amigobulls.com","Year":2015},{"Amount":18000,"Area":"Boston","Categories":"FinTech and Financial Technology","Country":"USA","Founded":2008,"Funding Total":18000,"Latitude":42.360482,"Longitude":-71.059568,"Name":"AmpIdea","Status":"closed","Type":"seed","Url":"http://www.ampidea.com","Year":2009},{"Amount":null,"Area":"New York City","Categories":"Crowdfunding, Social Fundraising, and Social Investing","Country":"USA","Founded":null,"Funding Total":0,"Latitude":40.730599,"Longitude":-73.986581,"Name":"Amp Your Good","Status":"operating","Type":"seed","Url":"http://www.ampyourgood.net","Year":2015},{"Amount":1346153,"Area":"Halifax","Categories":"Financial Services|FinTech and Financial Technology","Country":"CAN","Founded":2013,"Funding Total":1346153,"Latitude":44.648425,"Longitude":-63.574972,"Name":"Analyze Re","Status":"operating","Type":"venture","Url":"http://www.analyzere.com","Year":2013},{"Amount":null,"Area":"London","Categories":"FinTech and Financial Technology|Fraud Detection","Country":"GBR","Founded":2010,"Funding Total":6367595,"Latitude":51.507322,"Longitude":-0.127647,"Name":"Ancoa Software","Status":"operating","Type":"undisclosed","Url":"http://www.ancoa.com","Year":2014},{"Amount":3400000,"Area":"Valladolid","Categories":"Accounting","Country":"ESP","Founded":2010,"Funding Total":9500000,"Latitude":41.703048,"Longitude":-4.696951,"Name":"anfix","Status":"operating","Type":"venture","Url":"http://anfix.com","Year":2010},{"Amount":null,"Area":"Beijing","Categories":"Crowdfunding, Social Fundraising, and Social Investing","Country":"CHN","Founded":2011,"Funding Total":0,"Latitude":39.905963,"Longitude":116.391248,"Name":"AngelCrunch","Status":"operating","Type":"seed","Url":"http://www.angelcrunch.com","Year":2011},{"Amount":null,"Area":"Chengdu","Categories":"Investment Management, Wealth Management, and Hedge Funds|Venture Capital","Country":"CHN","Founded":null,"Funding Total":0,"Latitude":30.676555,"Longitude":104.061278,"Name":"Angel Group Holding Company","Status":"operating","Type":"venture","Url":"http://www.angel-group.com.cn","Year":2014},{"Amount":750000,"Area":"SF Bay Area","Categories":"Crowdfunding, Social Fundraising, and Social Investing|Venture Capital","Country":"USA","Founded":2013,"Funding Total":1500000,"Latitude":37.7833,"Longitude":-122.4167,"Name":"angelMD","Status":"operating","Type":"seed","Url":"http://www.angelmd.co","Year":2013},{"Amount":7000000,"Area":"SF Bay Area","Categories":"Venture Capital","Country":"USA","Founded":2010,"Funding Total":7000000,"Latitude":37.7833,"Longitude":-122.4167,"Name":"AngelPad","Status":"operating","Type":"venture","Url":"http://www.angelpad.org","Year":2014},{"Amount":1000000,"Area":"London","Categories":"Crowdfunding, Social Fundraising, and Social Investing","Country":"GBR","Founded":2007,"Funding Total":1000000,"Latitude":51.507322,"Longitude":-0.127647,"Name":"Angels Den","Status":"operating","Type":"equity_crowdfunding","Url":"http://www.angelsden.com","Year":2015},{"Amount":500000,"Area":"Eugene","Categories":"Venture Capital","Country":"USA","Founded":2010,"Funding Total":1075000,"Latitude":44.101181,"Longitude":-123.152384,"Name":"Angle","Status":"operating","Type":"seed","Url":"http://www.anglellc.com","Year":2011},{"Amount":null,"Area":"New York City","Categories":"Venture Capital","Country":"USA","Founded":2012,"Funding Total":0,"Latitude":40.730599,"Longitude":-73.986581,"Name":"Anglo Andino Group","Status":"operating","Type":"equity_crowdfunding","Url":"http://www.angloandino.com","Year":2014},{"Amount":56292,"Area":"Tokyo","Categories":"Crowdfunding, Social Fundraising, and Social Investing","Country":"JPN","Founded":2011,"Funding Total":104292,"Latitude":35.690041,"Longitude":139.510395,"Name":"Anipipo","Status":"operating","Type":"seed","Url":"http://www.anipipo.com","Year":2012},{"Amount":null,"Area":"Baar","Categories":"Financial Services|FinTech and Financial Technology","Country":"CHE","Founded":2015,"Funding Total":0,"Latitude":47.194842,"Longitude":8.525564,"Name":"ANIVO","Status":"operating","Type":"seed","Url":"http://anivo.ch","Year":2015},{"Amount":null,"Area":"Hangzhou","Categories":"Payments and Mobile Payments","Country":"CHN","Founded":2004,"Funding Total":0,"Latitude":30.275674,"Longitude":120.150486,"Name":"ANT Financial","Status":"operating","Type":"venture","Url":"http://www.alipay.com","Year":2015},{"Amount":1600000,"Area":"Las Vegas","Categories":"Investment Management, Wealth Management, and Hedge Funds","Country":"USA","Founded":2011,"Funding Total":3200000,"Latitude":36.166286,"Longitude":-115.149225,"Name":"Anthem Vault","Status":"operating","Type":"venture","Url":"https://www.anthemvault.com/","Year":2015},{"Amount":125000,"Area":"Newark","Categories":"Venture Capital","Country":"USA","Founded":2009,"Funding Total":125000,"Latitude":40.735657,"Longitude":-74.172367,"Name":"Antilles Advisors","Status":"operating","Type":"equity_crowdfunding","Url":"http://www.antillesadvisors.com/","Year":2014},{"Amount":579233,"Area":"NLD - Other","Categories":"Bitcoin|Payments and Mobile Payments|Virtual Currency","Country":"NLD","Founded":null,"Funding Total":579233,"Latitude":39.78373,"Longitude":-100.445882,"Name":"Anycoin Direct","Status":"operating","Type":"venture","Url":"https://anycoindirect.eu/en","Year":2015},{"Amount":null,"Area":"Bangalore","Categories":"Price Comparison","Country":"IND","Founded":2008,"Funding Total":0,"Latitude":12.97912,"Longitude":77.5913,"Name":"Apartment Adda","Status":"operating","Type":"angel","Url":"http://apartmentadda.com","Year":2013},{"Amount":70000,"Area":"Barcelona","Categories":"Price Comparison","Country":"ESP","Founded":2013,"Funding Total":70000,"Latitude":41.38256,"Longitude":2.177135,"Name":"apartum","Status":"operating","Type":"seed","Url":"http://www.apartum.com","Year":2013},{"Amount":440000,"Area":"Raleigh","Categories":"Banking","Country":"USA","Founded":null,"Funding Total":440000,"Latitude":35.780402,"Longitude":-78.639078,"Name":"aPersona","Status":"operating","Type":"venture","Url":"http://apersona.com","Year":2015},{"Amount":1840000,"Area":"Singapore","Categories":"Financial Services|FinTech and Financial Technology","Country":"SGP","Founded":2013,"Funding Total":1840000,"Latitude":1.290453,"Longitude":103.852038,"Name":"ApexPeak","Status":"operating","Type":"seed","Url":"http://www.apexpeak.com","Year":2013},{"Amount":150000,"Area":"Fresno","Categories":"Accounting","Country":"USA","Founded":2009,"Funding Total":3350000,"Latitude":36.739442,"Longitude":-119.784831,"Name":"Aplos Software","Status":"operating","Type":"angel","Url":"http://www.aplos.com","Year":2009},{"Amount":2200000,"Area":"Mumbai","Categories":"Credit, Credit Cards, and Consumer Lending","Country":"IND","Founded":2007,"Funding Total":17200000,"Latitude":18.95238,"Longitude":72.832711,"Name":"ApnaPaisa","Status":"operating","Type":"venture","Url":"http://apnapaisa.com","Year":2007},{"Amount":1700000,"Area":"Manchester","Categories":"FinTech and Financial Technology|Payments and Mobile Payments|Payments and Mobile Payments","Country":"GBR","Founded":2011,"Funding Total":1700000,"Latitude":53.479147,"Longitude":-2.244744,"Name":"App55 Ltd","Status":"closed","Type":"private_equity","Url":"http://www.app55.com","Year":2012},{"Amount":270820,"Area":"Valencia","Categories":"Price Comparison","Country":"ESP","Founded":null,"Funding Total":270820,"Latitude":39.681959,"Longitude":-0.765441,"Name":"Apparcando","Status":"operating","Type":"undisclosed","Url":"http://apparcando.com/","Year":2014},{"Amount":1500000,"Area":"AUS - Other","Categories":"Payments and Mobile Payments","Country":"AUS","Founded":null,"Funding Total":1500000,"Latitude":39.78373,"Longitude":-100.445882,"Name":"AppCast","Status":"operating","Type":"venture","Url":"http://www.appcast.com.au","Year":2014},{"Amount":15000,"Area":"SF Bay Area","Categories":"Venture Capital","Country":"USA","Founded":2007,"Funding Total":715000,"Latitude":37.7833,"Longitude":-122.4167,"Name":"AppJet","Status":"acquired","Type":"seed","Url":"http://appjet.com","Year":2007},{"Amount":3770000,"Area":"SF Bay Area","Categories":"Financial Services","Country":"USA","Founded":2013,"Funding Total":37770000,"Latitude":37.7833,"Longitude":-122.4167,"Name":"ApplePie Capital","Status":"operating","Type":"seed","Url":"http://www.applepiecapital.com","Year":2014},{"Amount":18000,"Area":"Denver","Categories":"FinTech and Financial Technology","Country":"USA","Founded":2006,"Funding Total":18000,"Latitude":39.739154,"Longitude":-104.984703,"Name":"Application Experts","Status":"operating","Type":"seed","Url":"http://www.app-x.com","Year":2008},{"Amount":50000000,"Area":"New York City","Categories":"Credit, Credit Cards, and Consumer Lending|Financial Services","Country":"USA","Founded":null,"Funding Total":50000000,"Latitude":40.730599,"Longitude":-73.986581,"Name":"Applied Data Finance","Status":"operating","Type":"debt_financing","Url":"http://applieddatafinance.com","Year":2015},{"Amount":800000,"Area":"SF Bay Area","Categories":"Payments and Mobile Payments","Country":"USA","Founded":2007,"Funding Total":800000,"Latitude":37.7833,"Longitude":-122.4167,"Name":"Apprema","Status":"closed","Type":"debt_financing","Url":"http://www.apprema.com","Year":2007},{"Amount":50000,"Area":"Brussels","Categories":"Crowdfunding, Social Fundraising, and Social Investing","Country":"BEL","Founded":2011,"Funding Total":250000,"Latitude":50.846557,"Longitude":4.351697,"Name":"AppsFunder","Status":"operating","Type":"seed","Url":"http://www.appsfunder.com","Year":2011},{"Amount":165000,"Area":"Charlotte","Categories":"Crowdfunding, Social Fundraising, and Social Investing|Investment Management, Wealth Management, and Hedge Funds|Venture Capital","Country":"USA","Founded":2014,"Funding Total":165000,"Latitude":35.227087,"Longitude":-80.843127,"Name":"AppVested","Status":"operating","Type":"seed","Url":"https://www.appvested.com","Year":2014},{"Amount":100000,"Area":"SF Bay Area","Categories":"Accounting","Country":"USA","Founded":2012,"Funding Total":100000,"Latitude":37.7833,"Longitude":-122.4167,"Name":"AppZen","Status":"operating","Type":"seed","Url":"http://www.appzen.com","Year":2014},{"Amount":500000,"Area":"New York City","Categories":"FinTech and Financial Technology","Country":"USA","Founded":2014,"Funding Total":500000,"Latitude":40.730599,"Longitude":-73.986581,"Name":"Aprenita","Status":"operating","Type":"seed","Url":"https://www.aprenita.com","Year":2014},{"Amount":10159162,"Area":"Phoenix","Categories":"Payments and Mobile Payments|Payments and Mobile Payments|Transaction Processing","Country":"USA","Founded":1999,"Funding Total":20159162,"Latitude":33.446768,"Longitude":-112.075672,"Name":"Apriva","Status":"operating","Type":"venture","Url":"http://www.apriva.com","Year":2011},{"Amount":400000,"Area":"Minneapolis","Categories":"Payments and Mobile Payments","Country":"USA","Founded":2013,"Funding Total":400000,"Latitude":44.9773,"Longitude":-93.265469,"Name":"Apruve","Status":"operating","Type":"seed","Url":"http://www.apruve.com","Year":2014},{"Amount":13876040,"Area":"FRA - Other","Categories":"Trading, Brokers, and Financial Exchanges","Country":"FRA","Founded":null,"Funding Total":13876040,"Latitude":39.78373,"Longitude":-100.445882,"Name":"AramisAuto","Status":"operating","Type":"venture","Url":"http://www.aramisauto.com/","Year":2009},{"Amount":null,"Area":"Barcelona","Categories":"Financial Services","Country":"ESP","Founded":2011,"Funding Total":0,"Latitude":41.38256,"Longitude":2.177135,"Name":"Arboribus","Status":"operating","Type":"seed","Url":"http://www.arboribus.com","Year":2014},{"Amount":null,"Area":"Chicago","Categories":"Financial Services","Country":"USA","Founded":1996,"Funding Total":125000000,"Latitude":41.875555,"Longitude":-87.624421,"Name":"Archipelago","Status":"acquired","Type":"undisclosed","Url":"http://www.archipelago.com/","Year":1999},{"Amount":328000,"Area":"PRT - Other","Categories":"Bitcoin|Crowdfunding, Social Fundraising, and Social Investing|FinTech and Financial Technology","Country":"PRT","Founded":2014,"Funding Total":328000,"Latitude":39.78373,"Longitude":-100.445882,"Name":"ArchVentures SA","Status":"operating","Type":"seed","Url":"https://archcoin.co/","Year":2014},{"Amount":200000,"Area":"Las Vegas","Categories":"Crowdfunding, Social Fundraising, and Social Investing","Country":"USA","Founded":2012,"Funding Total":1600000,"Latitude":36.166286,"Longitude":-115.149225,"Name":"Arctic Island LLC","Status":"operating","Type":"angel","Url":"http://www.arcticisland.com","Year":2012},{"Amount":null,"Area":"Bangkok","Categories":"Venture Capital","Country":"THA","Founded":2011,"Funding Total":12500000,"Latitude":13.585922,"Longitude":100.416087,"Name":"Ardent Capital","Status":"operating","Type":"venture","Url":"http://www.ardentcapital.com","Year":2013},{"Amount":10080000,"Area":"Paris","Categories":"Investment Management, Wealth Management, and Hedge Funds","Country":"FRA","Founded":1996,"Funding Total":10080000,"Latitude":48.856506,"Longitude":2.352133,"Name":"Ardian","Status":"operating","Type":"venture","Url":"http://www.ardian.com","Year":2006},{"Amount":250000,"Area":"Chicago","Categories":"Credit, Credit Cards, and Consumer Lending|Financial Services|FinTech and Financial Technology|Personal Finance","Country":"USA","Founded":2013,"Funding Total":80050000,"Latitude":41.875555,"Longitude":-87.624421,"Name":"ArgonCredit","Status":"operating","Type":"seed","Url":"http://www.argoncredit.com","Year":2014},{"Amount":500000,"Area":"Boston","Categories":"Payments and Mobile Payments","Country":"USA","Founded":2013,"Funding Total":500000,"Latitude":42.360482,"Longitude":-71.059568,"Name":"ArgoPay","Status":"operating","Type":"seed","Url":"http://www.argopay.com","Year":2013},{"Amount":5100500,"Area":"SF Bay Area","Categories":"Billing","Country":"USA","Founded":2003,"Funding Total":82300500,"Latitude":37.7833,"Longitude":-122.4167,"Name":"Aria Systems","Status":"operating","Type":"venture","Url":"http://www.ariasystems.com","Year":2007},{"Amount":3000000,"Area":"Little Rock","Categories":"FinTech and Financial Technology","Country":"USA","Founded":1983,"Funding Total":3000000,"Latitude":34.746481,"Longitude":-92.289595,"Name":"Arkansas Science & Technology Authority","Status":"operating","Type":"grant","Url":"http://asta.ar.gov","Year":2014},{"Amount":600000,"Area":"Fayetteville","Categories":"Trading, Brokers, and Financial Exchanges","Country":"USA","Founded":2007,"Funding Total":600000,"Latitude":36.111508,"Longitude":-94.209867,"Name":"Arkansas World Trade Center","Status":"operating","Type":"grant","Url":"http://www.arwtc.org","Year":2014},{"Amount":null,"Area":"SF Bay Area","Categories":"Payments and Mobile Payments","Country":"USA","Founded":2014,"Funding Total":0,"Latitude":37.7833,"Longitude":-122.4167,"Name":"Armor Payments","Status":"operating","Type":"seed","Url":"http://www.armorpayments.com","Year":2014},{"Amount":350000,"Area":"San Antonio","Categories":"Risk Management","Country":"USA","Founded":2014,"Funding Total":350000,"Latitude":29.4246,"Longitude":-98.49514,"Name":"Armour.io - OWN YOUR DATA","Status":"operating","Type":"seed","Url":"http://www.armour.io","Year":2014},{"Amount":null,"Area":"Chicago","Categories":"Payments and Mobile Payments","Country":"USA","Founded":1999,"Funding Total":58900000,"Latitude":41.875555,"Longitude":-87.624421,"Name":"Arroweye Solutions","Status":"operating","Type":"undisclosed","Url":"http://www.arroweye.com","Year":2000},{"Amount":50000,"Area":"New York City","Categories":"Auctions","Country":"USA","Founded":2007,"Funding Total":50000,"Latitude":40.730599,"Longitude":-73.986581,"Name":"artandseek","Status":"closed","Type":"seed","Url":"http://www.artandseek.com","Year":2007},{"Amount":3176477,"Area":"GBR - Other","Categories":"Banking","Country":"GBR","Founded":2006,"Funding Total":11176477,"Latitude":39.78373,"Longitude":-100.445882,"Name":"Artesian Solutions","Status":"operating","Type":"venture","Url":"http://www.artesiansolutions.com","Year":2012},{"Amount":null,"Area":"Hyderabad","Categories":"Financial Services|Personal Finance","Country":"IND","Founded":null,"Funding Total":0,"Latitude":17.361623,"Longitude":78.474731,"Name":"ArthaYantra","Status":"operating","Type":"seed","Url":"http://www.arthayantra.com","Year":2012},{"Amount":1200000,"Area":"New York City","Categories":"Crowdfunding, Social Fundraising, and Social Investing|FinTech and Financial Technology","Country":"USA","Founded":2013,"Funding Total":1200000,"Latitude":40.730599,"Longitude":-73.986581,"Name":"Arthena","Status":"operating","Type":"seed","Url":"http://arthena.com","Year":2014},{"Amount":2000000,"Area":"New York City","Categories":"Financial Services|FinTech and Financial Technology","Country":"USA","Founded":null,"Funding Total":17000000,"Latitude":40.730599,"Longitude":-73.986581,"Name":"Artivest","Status":"operating","Type":"seed","Url":"http://www.artivest.co","Year":2012},{"Amount":80000,"Area":"Bangalore","Categories":"Financial Services|FinTech and Financial Technology","Country":"IND","Founded":2010,"Funding Total":630000,"Latitude":12.97912,"Longitude":77.5913,"Name":"Artoo","Status":"operating","Type":"seed","Url":"http://www.artoo.in","Year":2010},{"Amount":1500000,"Area":"SF Bay Area","Categories":"Financial Services","Country":"USA","Founded":2014,"Funding Total":1500000,"Latitude":37.7833,"Longitude":-122.4167,"Name":"Ascend Consumer Finance","Status":"operating","Type":"seed","Url":"https://www.ascendloan.com/","Year":2015},{"Amount":2000000,"Area":"Berlin","Categories":"Bitcoin","Country":"DEU","Founded":2014,"Funding Total":2000000,"Latitude":52.517037,"Longitude":13.38886,"Name":"ascribe","Status":"operating","Type":"seed","Url":"https://www.ascribe.io","Year":2015},{"Amount":500000,"Area":"Bogota","Categories":"Insurance Companies","Country":"COL","Founded":null,"Funding Total":500000,"Latitude":4.598048,"Longitude":-74.076087,"Name":"Asegurate Facil","Status":"operating","Type":"seed","Url":"https://www.aseguratefacil.com","Year":2014},{"Amount":1350000,"Area":"London","Categories":"Financial Services","Country":"GBR","Founded":2013,"Funding Total":1350000,"Latitude":51.507322,"Longitude":-0.127647,"Name":"Asoko Insight","Status":"operating","Type":"venture","Url":"http://asokoinsight.com/","Year":2015},{"Amount":2500000,"Area":"Los Angeles","Categories":"Financial Services|Investment Management, Wealth Management, and Hedge Funds","Country":"USA","Founded":null,"Funding Total":20500000,"Latitude":34.054394,"Longitude":-118.243941,"Name":"Aspiration","Status":"operating","Type":"seed","Url":"https://www.aspiration.com/#home","Year":2013},{"Amount":468489,"Area":"London","Categories":"Financial Services","Country":"GBR","Founded":2011,"Funding Total":468489,"Latitude":51.507322,"Longitude":-0.127647,"Name":"Asset Match","Status":"operating","Type":"equity_crowdfunding","Url":"http://www.assetmatch.com/","Year":2013},{"Amount":4486920,"Area":"London","Categories":"Crowdfunding, Social Fundraising, and Social Investing","Country":"GBR","Founded":null,"Funding Total":4486920,"Latitude":51.507322,"Longitude":-0.127647,"Name":"Assetz Capital","Status":"operating","Type":"equity_crowdfunding","Url":"http://www.assetzcapital.co.uk","Year":2015},{"Amount":98000,"Area":"San Diego","Categories":"Trading, Brokers, and Financial Exchanges","Country":"USA","Founded":2011,"Funding Total":98000,"Latitude":32.717421,"Longitude":-117.162771,"Name":"Assistera","Status":"operating","Type":"seed","Url":"","Year":2011},{"Amount":6963750,"Area":"London","Categories":"Auctions","Country":"GBR","Founded":2012,"Funding Total":6963750,"Latitude":51.507322,"Longitude":-0.127647,"Name":"ATG Media (The Saleroom)","Status":"operating","Type":"venture","Url":"http://www.the-saleroom.com","Year":2013},{"Amount":400000,"Area":"Eugene","Categories":"Financial Services","Country":"USA","Founded":2008,"Funding Total":400000,"Latitude":44.101181,"Longitude":-123.152384,"Name":"Atlas Guides","Status":"closed","Type":"venture","Url":"http://www.atlasguides.com","Year":2010},{"Amount":3000000,"Area":"Berlin","Categories":"Auctions","Country":"DEU","Founded":2012,"Funding Total":95648700,"Latitude":52.517037,"Longitude":13.38886,"Name":"Auctionata","Status":"operating","Type":"angel","Url":"https://auctionata.com","Year":2012},{"Amount":5500000,"Area":"Portland","Categories":"Auctions","Country":"USA","Founded":1,"Funding Total":5500000,"Latitude":45.520247,"Longitude":-122.674195,"Name":"AuctionPay","Status":"acquired","Type":"venture","Url":"http://www.auctionpay.com","Year":2006},{"Amount":400000,"Area":"SF Bay Area","Categories":"Auctions","Country":"USA","Founded":2007,"Funding Total":400000,"Latitude":37.7833,"Longitude":-122.4167,"Name":"Auctomatic","Status":"acquired","Type":"angel","Url":"http://auctomatic.com","Year":2007},{"Amount":20000,"Area":"San Diego","Categories":"Crowdfunding, Social Fundraising, and Social Investing|Crowdfunding, Social Fundraising, and Social Investing","Country":"USA","Founded":2014,"Funding Total":20000,"Latitude":32.717421,"Longitude":-117.162771,"Name":"Audienced","Status":"operating","Type":"undisclosed","Url":"http://www.getaudienced.com","Year":2015},{"Amount":null,"Area":"SF Bay Area","Categories":"Accounting","Country":"USA","Founded":2011,"Funding Total":3000000,"Latitude":37.7833,"Longitude":-122.4167,"Name":"AuditFile","Status":"operating","Type":"seed","Url":"http://www.auditfile.com","Year":2013},{"Amount":4700000,"Area":"SF Bay Area","Categories":"Bitcoin","Country":"USA","Founded":2015,"Funding Total":4700000,"Latitude":37.7833,"Longitude":-122.4167,"Name":"Augur","Status":"operating","Type":"venture","Url":"http://www.augur.net","Year":2015},{"Amount":1250000,"Area":"SF Bay Area","Categories":"Payments and Mobile Payments","Country":"USA","Founded":null,"Funding Total":1250000,"Latitude":37.7833,"Longitude":-122.4167,"Name":"Aurfy","Status":"operating","Type":"seed","Url":"http://www.aurfy.com","Year":2014},{"Amount":500000,"Area":"Newark","Categories":"Venture Capital","Country":"USA","Founded":2008,"Funding Total":500000,"Latitude":40.735657,"Longitude":-74.172367,"Name":"Auster Capital Partners","Status":"operating","Type":"equity_crowdfunding","Url":"http://www.austercapitalpartners.com","Year":2014},{"Amount":null,"Area":"Sydney","Categories":"Trading, Brokers, and Financial Exchanges","Country":"AUS","Founded":2012,"Funding Total":7817974,"Latitude":-33.854816,"Longitude":151.216454,"Name":"Australian Credit and Finance","Status":"operating","Type":"seed","Url":"http://www.creditandfinance.com.au","Year":2012},{"Amount":117600000,"Area":"Berlin","Categories":"Trading, Brokers, and Financial Exchanges","Country":"DEU","Founded":2012,"Funding Total":117600000,"Latitude":52.517037,"Longitude":13.38886,"Name":"AUTO1 Group","Status":"operating","Type":"venture","Url":"http://www.auto1-group.com","Year":2015},{"Amount":null,"Area":"Vancouver","Categories":"Insurance Companies","Country":"CAN","Founded":2002,"Funding Total":0,"Latitude":49.260894,"Longitude":-123.113938,"Name":"AutoHouse Technologies","Status":"operating","Type":"equity_crowdfunding","Url":"http://www.autohousetechnologies.com","Year":2015},{"Amount":19311,"Area":"Aarhus","Categories":"Price Comparison","Country":"DNK","Founded":2010,"Funding Total":1101316,"Latitude":56.149628,"Longitude":10.213405,"Name":"AutoUncle","Status":"operating","Type":"seed","Url":"http://www.autouncle.dk","Year":2010},{"Amount":null,"Area":"Marseille","Categories":"Price Comparison","Country":"FRA","Founded":2010,"Funding Total":0,"Latitude":43.296174,"Longitude":5.369953,"Name":"Autrement (HotelHotel)","Status":"operating","Type":"seed","Url":"http://hotelhotel.com/","Year":2010},{"Amount":2672532,"Area":"Lansing","Categories":"FinTech and Financial Technology","Country":"USA","Founded":null,"Funding Total":2672532,"Latitude":42.733771,"Longitude":-84.55538,"Name":"Avadhi Finance and Technology","Status":"operating","Type":"venture","Url":"http://avadhi.com","Year":2009},{"Amount":4900000,"Area":"Seattle","Categories":"Accounting","Country":"USA","Founded":2004,"Funding Total":223625355,"Latitude":47.603832,"Longitude":-122.330062,"Name":"Avalara","Status":"operating","Type":"venture","Url":"http://www.avalara.com","Year":2010},{"Amount":25000,"Area":"Los Angeles","Categories":"Venture Capital","Country":"USA","Founded":2014,"Funding Total":25000,"Latitude":34.054394,"Longitude":-118.243941,"Name":"Avalon Auto Protection","Status":"operating","Type":"equity_crowdfunding","Url":"http://avalonautoprotection.com/","Year":2014},{"Amount":2100000,"Area":"BEL - Other","Categories":"FinTech and Financial Technology","Country":"BEL","Founded":2011,"Funding Total":2100000,"Latitude":39.78373,"Longitude":-100.445882,"Name":"Avance Pay","Status":"operating","Type":"venture","Url":"http://avance-pay.com","Year":2013},{"Amount":2000000,"Area":"SF Bay Area","Categories":"Financial Services","Country":"USA","Founded":2006,"Funding Total":7500000,"Latitude":37.7833,"Longitude":-122.4167,"Name":"Avangate","Status":"acquired","Type":"seed","Url":"http://www.avangate.com/","Year":2006},{"Amount":25000000,"Area":"Chicago","Categories":"FinTech and Financial Technology","Country":"USA","Founded":2012,"Funding Total":1729000000,"Latitude":41.875555,"Longitude":-87.624421,"Name":"Avant","Status":"operating","Type":"debt_financing","Url":"http://www.avant.com","Year":2013},{"Amount":48000000,"Area":"Shanghai","Categories":"Auctions","Country":"CHN","Founded":2009,"Funding Total":48000000,"Latitude":31.225344,"Longitude":121.488892,"Name":"Avazu Inc","Status":"operating","Type":"venture","Url":"http://avazudsp.net","Year":2014},{"Amount":497994,"Area":"London","Categories":"FinTech and Financial Technology","Country":"GBR","Founded":2012,"Funding Total":497994,"Latitude":51.507322,"Longitude":-0.127647,"Name":"Aviation and Tech Capital Ltd","Status":"operating","Type":"seed","Url":"http://www.ablrate.com","Year":2014},{"Amount":16000000,"Area":"SF Bay Area","Categories":"FinTech and Financial Technology","Country":"USA","Founded":2003,"Funding Total":16000000,"Latitude":37.7833,"Longitude":-122.4167,"Name":"Avidbank Holdings","Status":"operating","Type":"venture","Url":"http://avidbank.com","Year":2013},{"Amount":30000,"Area":"Toronto","Categories":"Payments and Mobile Payments","Country":"CAN","Founded":null,"Funding Total":30000,"Latitude":43.652921,"Longitude":-79.384901,"Name":"AvidRetail","Status":"operating","Type":"venture","Url":"http://www.avidretail.com","Year":2012},{"Amount":225000000,"Area":"Charlotte","Categories":"Payments and Mobile Payments","Country":"USA","Founded":2000,"Funding Total":225000000,"Latitude":35.227087,"Longitude":-80.843127,"Name":"AvidXchange","Status":"operating","Type":"venture","Url":"http://www.avidxchange.com","Year":2015},{"Amount":null,"Area":"Dublin","Categories":"Financial Services","Country":"IRL","Founded":2010,"Funding Total":0,"Latitude":53.349765,"Longitude":-6.260273,"Name":"Avolon Holdings","Status":"acquired","Type":"undisclosed","Url":"http://avolon.aero/","Year":2015},{"Amount":550000,"Area":"Frankfurt","Categories":"Financial Services","Country":"DEU","Founded":2015,"Funding Total":550000,"Latitude":50.110653,"Longitude":8.682093,"Name":"awamo","Status":"operating","Type":"seed","Url":"http://awamo.com","Year":2015},{"Amount":null,"Area":"Toronto","Categories":"Price Comparison","Country":"CAN","Founded":2011,"Funding Total":0,"Latitude":43.652921,"Longitude":-79.384901,"Name":"Axonify","Status":"operating","Type":"undisclosed","Url":"http://www.axonify.com","Year":2012},{"Amount":4318284,"Area":"Newark","Categories":"Risk Management","Country":"USA","Founded":2009,"Funding Total":44741834,"Latitude":40.735657,"Longitude":-74.172367,"Name":"Axtria","Status":"operating","Type":"seed","Url":"http://axtria.com","Year":2011},{"Amount":1000000,"Area":"New Delhi","Categories":"Financial Services","Country":"IND","Founded":null,"Funding Total":1000000,"Latitude":28.613897,"Longitude":77.215956,"Name":"Aye Finance","Status":"operating","Type":"venture","Url":"http://www.ayefin.com/","Year":2015},{"Amount":null,"Area":"Shanghai","Categories":"Payments and Mobile Payments","Country":"CHN","Founded":null,"Funding Total":0,"Latitude":31.225344,"Longitude":121.488892,"Name":"Ayi Laile","Status":"operating","Type":"venture","Url":"http://www.ayilaile.com/","Year":2014},{"Amount":null,"Area":"London","Categories":"Trading, Brokers, and Financial Exchanges","Country":"GBR","Founded":2008,"Funding Total":10283444,"Latitude":51.507322,"Longitude":-0.127647,"Name":"Ayondo","Status":"operating","Type":"angel","Url":"http://ayondo.com","Year":2009},{"Amount":591693,"Area":"London","Categories":"Financial Services|FinTech and Financial Technology|Personal Finance","Country":"GBR","Founded":2012,"Funding Total":31591693,"Latitude":51.507322,"Longitude":-0.127647,"Name":"Azimo","Status":"operating","Type":"seed","Url":"http://azimo.com","Year":2013},{"Amount":null,"Area":"Columbus","Categories":"Bitcoin|Virtual Currency","Country":"USA","Founded":1,"Funding Total":0,"Latitude":39.96226,"Longitude":-83.000706,"Name":"B1bl3Shares LLC","Status":"operating","Type":"seed","Url":"http://b1bl3shares.com","Year":2015},{"Amount":null,"Area":"Derby","Categories":"Accounting","Country":"GBR","Founded":1974,"Funding Total":0,"Latitude":52.921262,"Longitude":-1.476149,"Name":"Babington Group","Status":"operating","Type":"undisclosed","Url":"http://babington.co.uk","Year":2009},{"Amount":null,"Area":"SF Bay Area","Categories":"Crowdfunding, Social Fundraising, and Social Investing","Country":"USA","Founded":2013,"Funding Total":0,"Latitude":37.7833,"Longitude":-122.4167,"Name":"BackerKit","Status":"operating","Type":"convertible_note","Url":"https://backerkit.com","Year":2012},{"Amount":150000,"Area":"SF Bay Area","Categories":"Accounting|Financial Services|FinTech and Financial Technology","Country":"USA","Founded":2010,"Funding Total":8650000,"Latitude":37.7833,"Longitude":-122.4167,"Name":"BackOps","Status":"operating","Type":"seed","Url":"http://www.backops.co","Year":2012},{"Amount":8000000,"Area":"Budapest","Categories":"Accounting","Country":"HUN","Founded":2000,"Funding Total":8000000,"Latitude":47.498382,"Longitude":19.040471,"Name":"BalaBit","Status":"operating","Type":"venture","Url":"http://www.balabit.com","Year":2014},{"Amount":150000,"Area":"SF Bay Area","Categories":"Payments and Mobile Payments|Payments and Mobile Payments","Country":"USA","Founded":2010,"Funding Total":3550000,"Latitude":37.7833,"Longitude":-122.4167,"Name":"Balanced","Status":"closed","Type":"debt_financing","Url":"http://www.balancedpayments.com","Year":2011},{"Amount":2200000,"Area":"SF Bay Area","Categories":"Accounting","Country":"USA","Founded":2014,"Funding Total":3300000,"Latitude":37.7833,"Longitude":-122.4167,"Name":"Balanced Labs","Status":"operating","Type":"seed","Url":"http://www.balancedlabs.com/","Year":2014},{"Amount":null,"Area":"New York City","Categories":"Financial Services|Trading, Brokers, and Financial Exchanges","Country":"USA","Founded":2007,"Funding Total":0,"Latitude":40.730599,"Longitude":-73.986581,"Name":"Ballista Securities","Status":"acquired","Type":"undisclosed","Url":"http://www.ballistasecurities.com","Year":2009},{"Amount":3343000,"Area":"Scranton","Categories":"Financial Services","Country":"USA","Founded":2015,"Funding Total":3343000,"Latitude":41.408687,"Longitude":-75.662129,"Name":"Bama Leasing","Status":"operating","Type":"venture","Url":"https://www.bamaleasing.com/","Year":2015},{"Amount":25000000,"Area":"Johannesburg","Categories":"Financial Services","Country":"ZAF","Founded":2000,"Funding Total":25000000,"Latitude":-26.205,"Longitude":28.049722,"Name":"BancABC","Status":"operating","Type":"debt_financing","Url":"http://bancabc.com","Year":2014},{"Amount":130000,"Area":"Frankfurt","Categories":"FinTech and Financial Technology","Country":"DEU","Founded":2015,"Funding Total":130000,"Latitude":50.110653,"Longitude":8.682093,"Name":"BANCALIS GmbH","Status":"operating","Type":"grant","Url":"http://www.Bancalis.de","Year":2015},{"Amount":7704358,"Area":"DNK - Other","Categories":"Payments and Mobile Payments","Country":"DNK","Founded":2005,"Funding Total":7704358,"Latitude":39.78373,"Longitude":-100.445882,"Name":"Bancore A/S","Status":"operating","Type":"venture","Url":"http://www.bancore.com","Year":2013},{"Amount":49224,"Area":"MEX - Other","Categories":"Crowdfunding, Social Fundraising, and Social Investing","Country":"MEX","Founded":2011,"Funding Total":210082,"Latitude":39.78373,"Longitude":-100.445882,"Name":"Bandtastic","Status":"operating","Type":"seed","Url":"http://bandtastic.me","Year":2011},{"Amount":6000000,"Area":"Chennai","Categories":"Credit, Credit Cards, and Consumer Lending","Country":"IND","Founded":2008,"Funding Total":79000000,"Latitude":13.079691,"Longitude":80.282953,"Name":"BankBazaar.com","Status":"operating","Type":"venture","Url":"http://www.bankbazaar.com","Year":2011},{"Amount":null,"Area":"Austin","Categories":"Banking|Risk Management","Country":"USA","Founded":2000,"Funding Total":0,"Latitude":30.271129,"Longitude":-97.743699,"Name":"Banker's Toolbox","Status":"operating","Type":"undisclosed","Url":"http://www.bankerstoolbox.com/","Year":2015},{"Amount":1400000,"Area":"Sao Paulo","Categories":"Banking|Credit, Credit Cards, and Consumer Lending|Personal Finance","Country":"BRA","Founded":2012,"Funding Total":5400000,"Latitude":-21.954981,"Longitude":-49.023235,"Name":"BankFacil","Status":"operating","Type":"seed","Url":"http://www.bankfacil.com.br","Year":2013},{"Amount":null,"Area":"Houston","Categories":"Credit, Credit Cards, and Consumer Lending|Financial Services|Personal Finance","Country":"USA","Founded":2011,"Funding Total":0,"Latitude":29.758938,"Longitude":-95.367697,"Name":"Banksnob","Status":"closed","Type":"undisclosed","Url":"http://www.banksnob.com","Year":2011},{"Amount":3000000,"Area":"London","Categories":"Crowdfunding, Social Fundraising, and Social Investing|Venture Capital","Country":"GBR","Founded":2010,"Funding Total":3000000,"Latitude":51.507322,"Longitude":-0.127647,"Name":"BankToTheFuture","Status":"operating","Type":"venture","Url":"http://bflanding.banktothefuture.com/","Year":2015},{"Amount":1300000,"Area":"Stockholm","Categories":"Auctions","Country":"SWE","Founded":2011,"Funding Total":4100000,"Latitude":59.325117,"Longitude":18.071094,"Name":"Barnebys - All Auctions in one place","Status":"operating","Type":"venture","Url":"http://www.barnebys.com","Year":2012},{"Amount":null,"Area":"Napa Valley","Categories":"Crowdfunding, Social Fundraising, and Social Investing","Country":"USA","Founded":2014,"Funding Total":0,"Latitude":22.411245,"Longitude":113.980393,"Name":"Barnraiser","Status":"operating","Type":"venture","Url":"http://www.barnraiser.us","Year":2014},{"Amount":null,"Area":"London","Categories":"Payments and Mobile Payments","Country":"GBR","Founded":2013,"Funding Total":63992,"Latitude":51.507322,"Longitude":-0.127647,"Name":"Bar Pass","Status":"operating","Type":"venture","Url":"http://www.barpass.co.uk","Year":2013},{"Amount":20000,"Area":"Kiev","Categories":"Trading, Brokers, and Financial Exchanges","Country":"UKR","Founded":2011,"Funding Total":40000,"Latitude":50.450107,"Longitude":30.52405,"Name":"Bartermill.com","Status":"operating","Type":"seed","Url":"http://www.bartermill.com","Year":2009},{"Amount":null,"Area":"Berlin","Categories":"FinTech and Financial Technology|Payments and Mobile Payments","Country":"DEU","Founded":2011,"Funding Total":0,"Latitude":52.517037,"Longitude":13.38886,"Name":"Barzahlen - Cash Payment Solutions GmbH","Status":"operating","Type":"seed","Url":"http://www.barzahlen.de/en/home","Year":2012},{"Amount":1000000,"Area":"SF Bay Area","Categories":"Venture Capital","Country":"USA","Founded":2012,"Funding Total":1000000,"Latitude":37.7833,"Longitude":-122.4167,"Name":"Basement Ventures","Status":"operating","Type":"undisclosed","Url":"http://basement.ga/","Year":2015},{"Amount":2480000,"Area":"SF Bay Area","Categories":"Financial Services|Investment Management, Wealth Management, and Hedge Funds","Country":"USA","Founded":null,"Funding Total":2480000,"Latitude":37.7833,"Longitude":-122.4167,"Name":"BaseVenture","Status":"operating","Type":"seed","Url":"https://www.baseventure.com/","Year":2015},{"Amount":750000,"Area":"Atlanta","Categories":"Financial Services|FinTech and Financial Technology","Country":"USA","Founded":2011,"Funding Total":750000,"Latitude":33.749099,"Longitude":-84.390185,"Name":"BasisCode","Status":"operating","Type":"venture","Url":"http://www.basiscode.com/","Year":2014},{"Amount":45000000,"Area":"Kansas City","Categories":"FinTech and Financial Technology","Country":"USA","Founded":2005,"Funding Total":45000000,"Latitude":39.084469,"Longitude":-94.56303,"Name":"BATS Global Markets","Status":"operating","Type":"venture","Url":"http://batstrading.com","Year":2007},{"Amount":8000000,"Area":"SF Bay Area","Categories":"Risk Management","Country":"USA","Founded":2001,"Funding Total":8000000,"Latitude":37.7833,"Longitude":-122.4167,"Name":"Bay Dynamics","Status":"operating","Type":"venture","Url":"http://baydynamics.com","Year":2014},{"Amount":998999,"Area":"Dubai","Categories":"Banking|Price Comparison","Country":"ARE","Founded":2011,"Funding Total":998999,"Latitude":25.268352,"Longitude":55.296196,"Name":"Bayzat","Status":"operating","Type":"venture","Url":"http://www.bayzat.com","Year":2015},{"Amount":1000000,"Area":"Manila","Categories":"Crowdfunding, Social Fundraising, and Social Investing","Country":"PHL","Founded":2012,"Funding Total":2000000,"Latitude":14.590622,"Longitude":120.97997,"Name":"Bazinga","Status":"operating","Type":"seed","Url":"http://bazingacorp.com","Year":2013},{"Amount":null,"Area":"Chicago","Categories":"Virtual Currency","Country":"USA","Founded":2011,"Funding Total":1950000,"Latitude":41.875555,"Longitude":-87.624421,"Name":"BCKSTGR","Status":"operating","Type":"seed","Url":"http://bckstgr.com","Year":2012},{"Amount":0,"Area":"Philadelphia","Categories":"Investment Management, Wealth Management, and Hedge Funds","Country":"USA","Founded":2015,"Funding Total":0,"Latitude":39.952399,"Longitude":-75.16359,"Name":"BDCM Support Services Corporation","Status":"operating","Type":"equity_crowdfunding","Url":"","Year":2014},{"Amount":674598700,"Area":"Los Angeles","Categories":"Investment Management, Wealth Management, and Hedge Funds","Country":"USA","Founded":null,"Funding Total":674598700,"Latitude":34.054394,"Longitude":-118.243941,"Name":"Beacon Holding","Status":"operating","Type":"private_equity","Url":"","Year":2011},{"Amount":155554,"Area":"Zurich","Categories":"Point of Sale","Country":"CHE","Founded":2014,"Funding Total":368803,"Latitude":47.368559,"Longitude":8.540443,"Name":"beaconsmind AG","Status":"operating","Type":"seed","Url":"http://www.beaconsmind.com/","Year":2014},{"Amount":150000,"Area":"SF Bay Area","Categories":"Payments and Mobile Payments|Point of Sale","Country":"USA","Founded":2012,"Funding Total":150000,"Latitude":37.7833,"Longitude":-122.4167,"Name":"Beamm","Status":"operating","Type":"seed","Url":"http://www.beamm.me","Year":2012},{"Amount":5000000,"Area":"Las Vegas","Categories":"Financial Services","Country":"USA","Founded":null,"Funding Total":5000000,"Latitude":36.166286,"Longitude":-115.149225,"Name":"Becovillage","Status":"operating","Type":"venture","Url":"http://www.becovillage.com","Year":2014},{"Amount":140000,"Area":"Santiago","Categories":"Crowdfunding, Social Fundraising, and Social Investing|Financial Services|FinTech and Financial Technology|Personal Finance","Country":"CHL","Founded":2014,"Funding Total":140000,"Latitude":-33.437913,"Longitude":-70.650456,"Name":"Becual","Status":"operating","Type":"seed","Url":"http://www.becual.com","Year":2014},{"Amount":20000,"Area":"Austin","Categories":"Fraud Detection","Country":"USA","Founded":2013,"Funding Total":70000,"Latitude":30.271129,"Longitude":-97.743699,"Name":"BeehiveID","Status":"operating","Type":"seed","Url":"http://www.beehiveid.com","Year":2013},{"Amount":6000000,"Area":"Los Angeles","Categories":"Venture Capital","Country":"USA","Founded":2012,"Funding Total":6000000,"Latitude":34.054394,"Longitude":-118.243941,"Name":"Be Great Partners","Status":"operating","Type":"venture","Url":"http://www.begreat.co/","Year":2013},{"Amount":10000000,"Area":"New York City","Categories":"Payments and Mobile Payments","Country":"USA","Founded":2011,"Funding Total":129000000,"Latitude":40.730599,"Longitude":-73.986581,"Name":"Behalf","Status":"operating","Type":"venture","Url":"https://behalf.com","Year":2013},{"Amount":50000,"Area":"Brussels","Categories":"Crowdfunding, Social Fundraising, and Social Investing|FinTech and Financial Technology","Country":"BEL","Founded":2011,"Funding Total":50000,"Latitude":50.846557,"Longitude":4.351697,"Name":"BelieversFund","Status":"closed","Type":"seed","Url":"http://www.believersfund.com","Year":2011},{"Amount":null,"Area":"Vancouver","Categories":"Accounting","Country":"CAN","Founded":2012,"Funding Total":10000000,"Latitude":49.260894,"Longitude":-123.113938,"Name":"Bench","Status":"operating","Type":"seed","Url":"http://bench.co","Year":2012},{"Amount":5200000,"Area":"Dallas","Categories":"Banking","Country":"USA","Founded":1964,"Funding Total":5200000,"Latitude":32.776272,"Longitude":-96.796856,"Name":"Benchmark Bank","Status":"operating","Type":"venture","Url":"https://www.benchmarkbank.com/","Year":2015},{"Amount":230000,"Area":"Grand Rapids","Categories":"Gift Card|Payments and Mobile Payments","Country":"USA","Founded":2012,"Funding Total":1200378,"Latitude":42.96336,"Longitude":-85.668086,"Name":"Benefit Mobile","Status":"operating","Type":"convertible_note","Url":"http://www.benefit-mobile.com","Year":2013},{"Amount":150000,"Area":"San Diego","Categories":"Financial Services|Crowdfunding, Social Fundraising, and Social Investing","Country":"USA","Founded":null,"Funding Total":150000,"Latitude":32.717421,"Longitude":-117.162771,"Name":"Benefunder","Status":"operating","Type":"seed","Url":"http://benefunder.org/","Year":2014},{"Amount":2500000,"Area":"SF Bay Area","Categories":"Financial Services|FinTech and Financial Technology","Country":"USA","Founded":2013,"Funding Total":2500000,"Latitude":37.7833,"Longitude":-122.4167,"Name":"Bento","Status":"operating","Type":"seed","Url":"http://www.bentoforbusiness.com/","Year":2015},{"Amount":1500000,"Area":"Detroit","Categories":"FinTech and Financial Technology","Country":"USA","Founded":2011,"Funding Total":1500000,"Latitude":42.348664,"Longitude":-83.056737,"Name":"Benzinga","Status":"operating","Type":"venture","Url":"http://www.benzinga.com","Year":2011},{"Amount":1900000,"Area":"Nashville","Categories":"Financial Services","Country":"USA","Founded":2006,"Funding Total":4000000,"Latitude":36.16223,"Longitude":-86.774353,"Name":"Bernard Health","Status":"operating","Type":"seed","Url":"http://bernardhealth.com","Year":2013},{"Amount":93329,"Area":"Madrid","Categories":"Banking|FinTech and Financial Technology","Country":"ESP","Founded":2014,"Funding Total":291841,"Latitude":40.416705,"Longitude":-3.703582,"Name":"Besepa","Status":"operating","Type":"angel","Url":"http://www.besepa.com","Year":2014},{"Amount":3000000,"Area":"Mumbai","Categories":"Financial Services","Country":"IND","Founded":2014,"Funding Total":3000000,"Latitude":18.95238,"Longitude":72.832711,"Name":"Bestdealfinance","Status":"operating","Type":"venture","Url":"https://www.bestdealfinance.com/","Year":2015},{"Amount":1200000,"Area":"Philadelphia","Categories":"Venture Capital","Country":"USA","Founded":1995,"Funding Total":1200000,"Latitude":39.952399,"Longitude":-75.16359,"Name":"Best Money Decisions","Status":"operating","Type":"debt_financing","Url":"","Year":2014},{"Amount":700000,"Area":"Omaha","Categories":"Trading, Brokers, and Financial Exchanges","Country":"USA","Founded":null,"Funding Total":700000,"Latitude":41.258732,"Longitude":-95.937873,"Name":"Best Option Trading","Status":"operating","Type":"seed","Url":"http://www.bestoptiontrading.com/","Year":2014},{"Amount":1000000,"Area":"ID - Other","Categories":"FinTech and Financial Technology","Country":"USA","Founded":2004,"Funding Total":1000000,"Latitude":-0.369029,"Longitude":111.15381,"Name":"Better ATM Services","Status":"operating","Type":"seed","Url":"http://betteratmservices.com","Year":2013},{"Amount":null,"Area":"New York City","Categories":"Investment Management, Wealth Management, and Hedge Funds","Country":"USA","Founded":2008,"Funding Total":105000000,"Latitude":40.730599,"Longitude":-73.986581,"Name":"Betterment","Status":"operating","Type":"seed","Url":"http://www.betterment.com","Year":2010},{"Amount":4786928,"Area":"CHE - Other","Categories":"Accounting|Billing","Country":"CHE","Founded":2013,"Funding Total":4786928,"Latitude":39.78373,"Longitude":-100.445882,"Name":"bexio","Status":"operating","Type":"venture","Url":"http://www.bexio.com","Year":2015},{"Amount":500000,"Area":"SF Bay Area","Categories":"FinTech and Financial Technology","Country":"USA","Founded":2005,"Funding Total":7500000,"Latitude":37.7833,"Longitude":-122.4167,"Name":"B-hive Networks","Status":"acquired","Type":"seed","Url":"http://www.bhive.net","Year":2005},{"Amount":230000,"Area":"Barcelona","Categories":"Auctions","Country":"ESP","Founded":2012,"Funding Total":1430000,"Latitude":41.38256,"Longitude":2.177135,"Name":"BidAway","Status":"operating","Type":"seed","Url":"http://bidaway.com","Year":2013},{"Amount":350000,"Area":"New Orleans","Categories":"Auctions","Country":"USA","Founded":2010,"Funding Total":500000,"Latitude":29.949932,"Longitude":-90.070116,"Name":"Bideo","Status":"operating","Type":"seed","Url":"http://www.bideo.com","Year":2009},{"Amount":null,"Area":"MO - Other","Categories":"Auctions","Country":"USA","Founded":2012,"Funding Total":0,"Latitude":39.78373,"Longitude":-100.445882,"Name":"BidRazor","Status":"operating","Type":"seed","Url":"http://www.bidrazor.com","Year":2013},{"Amount":null,"Area":"New York City","Categories":"Financial Services","Country":"USA","Founded":null,"Funding Total":0,"Latitude":40.730599,"Longitude":-73.986581,"Name":"BIDS Trading","Status":"closed","Type":"venture","Url":"http://www.bidstrading.com","Year":2007},{"Amount":null,"Area":"New York City","Categories":"Venture Capital","Country":"USA","Founded":2012,"Funding Total":0,"Latitude":40.730599,"Longitude":-73.986581,"Name":"Big Apple Insurance Solutions","Status":"operating","Type":"equity_crowdfunding","Url":"http://www.bigappleinsurancesolutions.com","Year":2014},{"Amount":53491,"Area":"CZE - Other","Categories":"FinTech and Financial Technology","Country":"CZE","Founded":2011,"Funding Total":122738,"Latitude":39.78373,"Longitude":-100.445882,"Name":"BIG Launcher","Status":"operating","Type":"seed","Url":"http://biglauncher.com","Year":2013},{"Amount":151978,"Area":"Chester","Categories":"Price Comparison","Country":"GBR","Founded":2011,"Funding Total":151978,"Latitude":53.190887,"Longitude":-2.890895,"Name":"Bikmo","Status":"operating","Type":"seed","Url":"http://bikmo.com","Year":2013},{"Amount":40000,"Area":"Santiago","Categories":"Transaction Processing","Country":"CHL","Founded":2011,"Funding Total":40000,"Latitude":-33.437913,"Longitude":-70.650456,"Name":"Biletu","Status":"operating","Type":"seed","Url":"http://www.biletu.com","Year":2011},{"Amount":196079,"Area":"Barcelona","Categories":"Billing","Country":"ESP","Founded":2013,"Funding Total":196079,"Latitude":41.38256,"Longitude":2.177135,"Name":"billage","Status":"operating","Type":"seed","Url":"http://www.billage.es","Year":2014},{"Amount":4000000,"Area":"SF Bay Area","Categories":"Financial Services|Payments and Mobile Payments","Country":"USA","Founded":2006,"Funding Total":15260000,"Latitude":37.7833,"Longitude":-122.4167,"Name":"Billeo Inc.","Status":"closed","Type":"venture","Url":"http://www.billeo.com","Year":2006},{"Amount":120000,"Area":"SF Bay Area","Categories":"Billing|Financial Services","Country":"USA","Founded":null,"Funding Total":120000,"Latitude":37.7833,"Longitude":-122.4167,"Name":"Bill Forward","Status":"operating","Type":"seed","Url":"http://www.billforward.net/","Year":2014},{"Amount":3000000,"Area":"New York City","Categories":"Credit, Credit Cards, and Consumer Lending|Credit, Credit Cards, and Consumer Lending|Credit, Credit Cards, and Consumer Lending|FinTech and Financial Technology|Fraud Detection|Personal Finance","Country":"USA","Founded":2010,"Funding Total":16500000,"Latitude":40.730599,"Longitude":-73.986581,"Name":"BillGuard","Status":"acquired","Type":"venture","Url":"http://www.billguard.com","Year":2010},{"Amount":18584,"Area":"Amsterdam","Categories":"Billing","Country":"NLD","Founded":2012,"Funding Total":18584,"Latitude":52.374436,"Longitude":4.897996,"Name":"Billingstreet","Status":"operating","Type":"seed","Url":"http://www.billingstreet.com","Year":2012},{"Amount":27400000,"Area":"Baltimore","Categories":"Credit, Credit Cards, and Consumer Lending|Payments and Mobile Payments","Country":"USA","Founded":2000,"Funding Total":100000000,"Latitude":39.290861,"Longitude":-76.610807,"Name":"Bill Me Later","Status":"acquired","Type":"venture","Url":"http://www.billmelater.com","Year":2006},{"Amount":150000,"Area":"Stockholm","Categories":"Billing","Country":"SWE","Founded":2011,"Funding Total":3255000,"Latitude":59.325117,"Longitude":18.071094,"Name":"Billogram","Status":"operating","Type":"angel","Url":"http://www.billogram.com","Year":2010},{"Amount":null,"Area":"SF Bay Area","Categories":"Trading, Brokers, and Financial Exchanges","Country":"USA","Founded":2011,"Funding Total":0,"Latitude":37.7833,"Longitude":-122.4167,"Name":"Bilneur","Status":"closed","Type":"undisclosed","Url":"http://www.bilneur.com","Year":2011},{"Amount":500000,"Area":"Orange County","Categories":"FinTech and Financial Technology","Country":"USA","Founded":1,"Funding Total":500000,"Latitude":33.750038,"Longitude":-117.870493,"Name":"BindHQ","Status":"operating","Type":"seed","Url":"http://www.bindhq.com","Year":2012},{"Amount":600000,"Area":"Boston","Categories":"Fraud Detection","Country":"USA","Founded":2011,"Funding Total":11600000,"Latitude":42.360482,"Longitude":-71.059568,"Name":"BioCatch","Status":"operating","Type":"seed","Url":"http://biocatch.com","Year":2012},{"Amount":100000,"Area":"Newark","Categories":"Point of Sale","Country":"USA","Founded":2015,"Funding Total":100000,"Latitude":40.735657,"Longitude":-74.172367,"Name":"BioMetric Cloud Solutions","Status":"operating","Type":"convertible_note","Url":"","Year":2013},{"Amount":2000000,"Area":"New York City","Categories":"Financial Services|FinTech and Financial Technology|Investment Management, Wealth Management, and Hedge Funds|Investment Management, Wealth Management, and Hedge Funds|Stock Exchanges","Country":"USA","Founded":2012,"Funding Total":2000000,"Latitude":40.730599,"Longitude":-73.986581,"Name":"Bipsync","Status":"operating","Type":"seed","Url":"http://www.bipsync.com","Year":2014},{"Amount":1235000,"Area":"Boston","Categories":"Venture Capital","Country":"USA","Founded":2011,"Funding Total":1235000,"Latitude":42.360482,"Longitude":-71.059568,"Name":"BISON","Status":"operating","Type":"seed","Url":"http://www.bison.co","Year":2012},{"Amount":10000000,"Area":"Ottawa","Categories":"Bitcoin|FinTech and Financial Technology","Country":"CAN","Founded":2013,"Funding Total":11000000,"Latitude":45.421033,"Longitude":-75.690022,"Name":"BitAccess","Status":"operating","Type":"seed","Url":"http://www.bitaccess.co","Year":2014},{"Amount":3920000,"Area":"Tunis","Categories":"FinTech and Financial Technology","Country":"TUN","Founded":1999,"Funding Total":3920000,"Latitude":33.843941,"Longitude":9.400138,"Name":"BITAKA Cards & Solutions","Status":"operating","Type":"venture","Url":"http://www.bitaka-tunisie.com","Year":2010},{"Amount":1266040,"Area":"Tokyo","Categories":"Bitcoin|Payments and Mobile Payments","Country":"JPN","Founded":2014,"Funding Total":1916040,"Latitude":35.690041,"Longitude":139.510395,"Name":"bitbank","Status":"operating","Type":"angel","Url":"http://bitcoinbank.co.jp/","Year":2014},{"Amount":267293,"Area":"Berlin","Categories":"Personal Finance","Country":"DEU","Founded":2013,"Funding Total":941049,"Latitude":52.517037,"Longitude":13.38886,"Name":"Bitbond","Status":"operating","Type":"seed","Url":"https://www.bitbond.com","Year":2014},{"Amount":50000,"Area":"Jakarta","Categories":"Bitcoin|Financial Services","Country":"IDN","Founded":2014,"Funding Total":50000,"Latitude":-6.175394,"Longitude":106.827183,"Name":"Bitcoin.co.id","Status":"operating","Type":"angel","Url":"https://www.bitcoin.co.id/","Year":2014},{"Amount":175000,"Area":"Dover","Categories":"Bitcoin|Trading, Brokers, and Financial Exchanges|Virtual Currency","Country":"USA","Founded":2014,"Funding Total":175000,"Latitude":39.158168,"Longitude":-75.524368,"Name":"BitCoin India","Status":"operating","Type":"equity_crowdfunding","Url":"http://bitcoin-india.org/","Year":2014},{"Amount":2000000,"Area":"Amsterdam","Categories":"Bitcoin","Country":"NLD","Founded":2014,"Funding Total":2000000,"Latitude":52.374436,"Longitude":4.897996,"Name":"Bitex.la","Status":"operating","Type":"seed","Url":"https://bitex.la","Year":2014},{"Amount":30000,"Area":"Harare","Categories":"Bitcoin|Payments and Mobile Payments","Country":"ZWE","Founded":null,"Funding Total":30000,"Latitude":-17.831773,"Longitude":31.045686,"Name":"BitFiance","Status":"operating","Type":"seed","Url":"http://bitfinance.co.zw/","Year":2015},{"Amount":20000000,"Area":"SF Bay Area","Categories":"Bitcoin","Country":"USA","Founded":2011,"Funding Total":60000000,"Latitude":37.7833,"Longitude":-122.4167,"Name":"BitFury Group","Status":"operating","Type":"venture","Url":"http://www.bitfury.com","Year":2014},{"Amount":12000000,"Area":"SF Bay Area","Categories":"Bitcoin|Financial Services","Country":"USA","Founded":2013,"Funding Total":12000000,"Latitude":37.7833,"Longitude":-122.4167,"Name":"BitGo","Status":"operating","Type":"venture","Url":"http://www.bitgo.com","Year":2014},{"Amount":2500000,"Area":"SF Bay Area","Categories":"Bitcoin|Payments and Mobile Payments","Country":"USA","Founded":2013,"Funding Total":14500000,"Latitude":37.7833,"Longitude":-122.4167,"Name":"Bitnet Technologies","Status":"operating","Type":"convertible_note","Url":"https://bitnet.io/","Year":2014},{"Amount":25000,"Area":"Wilmington","Categories":"Bitcoin|Payments and Mobile Payments|Payments and Mobile Payments","Country":"USA","Founded":5,"Funding Total":1921592,"Latitude":39.745947,"Longitude":-75.546589,"Name":"Bitpagos","Status":"operating","Type":"seed","Url":"http://bitpagos.net","Year":2013},{"Amount":510000,"Area":"Atlanta","Categories":"Bitcoin","Country":"USA","Founded":2011,"Funding Total":32510000,"Latitude":33.749099,"Longitude":-84.390185,"Name":"BitPay","Status":"operating","Type":"seed","Url":"http://bitpay.com","Year":2013},{"Amount":600000,"Area":"Nairobi","Categories":"Bitcoin|Payments and Mobile Payments","Country":"KEN","Founded":2013,"Funding Total":1700000,"Latitude":-1.283253,"Longitude":36.817245,"Name":"BitPesa","Status":"operating","Type":"seed","Url":"https://www.bitpesa.co/","Year":2014},{"Amount":774183,"Area":"London","Categories":"Auctions","Country":"GBR","Founded":2013,"Funding Total":1931647,"Latitude":51.507322,"Longitude":-0.127647,"Name":"BitPoster","Status":"operating","Type":"angel","Url":"http://www.bitposter.co","Year":2013},{"Amount":41250,"Area":"Hong Kong","Categories":"Bitcoin|FinTech and Financial Technology|Payments and Mobile Payments","Country":"HKG","Founded":2014,"Funding Total":41250,"Latitude":22.279328,"Longitude":114.162813,"Name":"Bitspark","Status":"operating","Type":"undisclosed","Url":"https://bitspark.io/","Year":2014},{"Amount":10000000,"Area":"GBR - Other","Categories":"Bitcoin","Country":"GBR","Founded":2011,"Funding Total":10000000,"Latitude":39.78373,"Longitude":-100.445882,"Name":"Bitstamp","Status":"operating","Type":"venture","Url":"http://www.bitstamp.net","Year":2013},{"Amount":500000,"Area":"Naples","Categories":"Bitcoin","Country":"USA","Founded":1,"Funding Total":500000,"Latitude":40.835934,"Longitude":14.248783,"Name":"BitStash","Status":"operating","Type":"seed","Url":"http://bitstash.com","Year":2014},{"Amount":1500000,"Area":"BRB - Other","Categories":"Bitcoin|Virtual Currency","Country":"BRB","Founded":null,"Funding Total":1500000,"Latitude":39.78373,"Longitude":-100.445882,"Name":"Bitt","Status":"operating","Type":"seed","Url":"https://www.bitt.com/home","Year":2015},{"Amount":null,"Area":"SF Bay Area","Categories":"Bitcoin|Financial Services","Country":"USA","Founded":2013,"Funding Total":750000,"Latitude":37.7833,"Longitude":-122.4167,"Name":"Bitwage","Status":"operating","Type":"seed","Url":"https://www.bitwage.co","Year":2014},{"Amount":800000,"Area":"Singapore","Categories":"Financial Services","Country":"SGP","Founded":2013,"Funding Total":4800000,"Latitude":1.290453,"Longitude":103.852038,"Name":"BitX","Status":"operating","Type":"seed","Url":"https://bitx.co/","Year":2014},{"Amount":0,"Area":"Las Vegas","Categories":"Venture Capital","Country":"USA","Founded":2015,"Funding Total":0,"Latitude":36.166286,"Longitude":-115.149225,"Name":"BizBashFunding","Status":"operating","Type":"debt_financing","Url":"","Year":2015},{"Amount":5100000,"Area":"Philadelphia","Categories":"FinTech and Financial Technology","Country":"USA","Founded":2010,"Funding Total":5100000,"Latitude":39.952399,"Longitude":-75.16359,"Name":"BizEquity","Status":"operating","Type":"venture","Url":"http://www.bizequity.com","Year":2014},{"Amount":0,"Area":"Omaha","Categories":"Venture Capital","Country":"USA","Founded":2012,"Funding Total":0,"Latitude":41.258732,"Longitude":-95.937873,"Name":"Bizfunding511.com","Status":"operating","Type":"equity_crowdfunding","Url":"http://www.bizfunding511.com/","Year":2014},{"Amount":null,"Area":"Alexandria","Categories":"Price Comparison","Country":"EGY","Founded":2012,"Funding Total":0,"Latitude":31.199004,"Longitude":29.894379,"Name":"Bkam","Status":"operating","Type":"angel","Url":"http://bkam.com","Year":2012},{"Amount":null,"Area":"New York City","Categories":"Investment Management, Wealth Management, and Hedge Funds","Country":"USA","Founded":null,"Funding Total":0,"Latitude":40.730599,"Longitude":-73.986581,"Name":"Black Rhino Group","Status":"operating","Type":"undisclosed","Url":"http://www.blackrhinogroup.com/","Year":2014},{"Amount":900000,"Area":"New York City","Categories":"Financial Services|Payments and Mobile Payments|Transaction Processing","Country":"USA","Founded":2014,"Funding Total":900000,"Latitude":40.730599,"Longitude":-73.986581,"Name":"Blade","Status":"operating","Type":"seed","Url":"http://www.BladePayments.com","Year":2015},{"Amount":10000000,"Area":"New York City","Categories":"Crowdfunding, Social Fundraising, and Social Investing","Country":"USA","Founded":2014,"Funding Total":10000000,"Latitude":40.730599,"Longitude":-73.986581,"Name":"Blancfleet","Status":"operating","Type":"angel","Url":"http://www.blancfleet.com","Year":2014},{"Amount":5000000,"Area":"Tel Aviv","Categories":"Financial Services","Country":"ISR","Founded":2014,"Funding Total":5000000,"Latitude":32.080481,"Longitude":34.780527,"Name":"BLender","Status":"operating","Type":"venture","Url":"https://www.blender.co.il/","Year":2015},{"Amount":8000000,"Area":"SF Bay Area","Categories":"Payments and Mobile Payments","Country":"USA","Founded":2007,"Funding Total":28000000,"Latitude":37.7833,"Longitude":-122.4167,"Name":"Bling Nation","Status":"closed","Type":"venture","Url":"http://www.blingnation.com","Year":2009},{"Amount":1731223,"Area":"SF Bay Area","Categories":"Investment Management, Wealth Management, and Hedge Funds","Country":"USA","Founded":null,"Funding Total":12931217,"Latitude":37.7833,"Longitude":-122.4167,"Name":"Blipify","Status":"operating","Type":"venture","Url":"","Year":2010},{"Amount":941414,"Area":"London","Categories":"Auctions","Country":"GBR","Founded":2004,"Funding Total":2341414,"Latitude":51.507322,"Longitude":-0.127647,"Name":"BlisMedia","Status":"operating","Type":"seed","Url":"http://www.blismedia.com","Year":2007},{"Amount":1249999,"Area":"Baltimore","Categories":"Credit, Credit Cards, and Consumer Lending|Credit, Credit Cards, and Consumer Lending|Financial Services|Payments and Mobile Payments","Country":"USA","Founded":2014,"Funding Total":1249999,"Latitude":39.290861,"Longitude":-76.610807,"Name":"Blispay.","Status":"operating","Type":"venture","Url":"http://blispay.com/","Year":2014},{"Amount":40000,"Area":"Miami","Categories":"Auctions","Country":"USA","Founded":2014,"Funding Total":40000,"Latitude":25.774266,"Longitude":-80.193659,"Name":"Blizuu","Status":"operating","Type":"seed","Url":"http://www.blizuu.com","Year":2014},{"Amount":400000,"Area":"SF Bay Area","Categories":"Bitcoin","Country":"USA","Founded":2014,"Funding Total":3500000,"Latitude":37.7833,"Longitude":-122.4167,"Name":"BlockCypher","Status":"operating","Type":"convertible_note","Url":"http://www.blockcypher.com/","Year":2014},{"Amount":25000,"Area":"SF Bay Area","Categories":"Fraud Detection|Risk Management","Country":"USA","Founded":2013,"Funding Total":2025000,"Latitude":37.7833,"Longitude":-122.4167,"Name":"BlockScore","Status":"operating","Type":"venture","Url":"http://blockscore.com","Year":2013},{"Amount":21000000,"Area":"Montreal","Categories":"Bitcoin|Payments and Mobile Payments","Country":"CAN","Founded":null,"Funding Total":21000000,"Latitude":45.522451,"Longitude":-73.591283,"Name":"Blockstream","Status":"operating","Type":"seed","Url":"http://blockstream.com/","Year":2014},{"Amount":669209,"Area":"OH - Other","Categories":"Bitcoin","Country":"USA","Founded":2014,"Funding Total":669209,"Latitude":39.78373,"Longitude":-100.445882,"Name":"BlockTrail","Status":"operating","Type":"seed","Url":"http://www.blocktrail.com","Year":2014},{"Amount":4000000,"Area":"Kansas City","Categories":"Investment Management, Wealth Management, and Hedge Funds","Country":"USA","Founded":2013,"Funding Total":4000000,"Latitude":39.084469,"Longitude":-94.56303,"Name":"Blooom","Status":"operating","Type":"venture","Url":"http://www.blooom.com","Year":2015},{"Amount":500000,"Area":"London","Categories":"Gift Card","Country":"GBR","Founded":2009,"Funding Total":500000,"Latitude":51.507322,"Longitude":-0.127647,"Name":"BlossomandTwigs.com","Status":"closed","Type":"seed","Url":"http://www.blossomandtwigs.com","Year":2009},{"Amount":null,"Area":"Seattle","Categories":"FinTech and Financial Technology","Country":"USA","Founded":2011,"Funding Total":0,"Latitude":47.603832,"Longitude":-122.330062,"Name":"Bluebox Now!","Status":"closed","Type":"seed","Url":"http://www.blueboxnow.com","Year":2011},{"Amount":210280,"Area":"Melbourne","Categories":"Payments and Mobile Payments","Country":"AUS","Founded":2013,"Funding Total":2784223,"Latitude":-37.814218,"Longitude":144.963161,"Name":"Bluedot Innovation","Status":"operating","Type":"seed","Url":"http://www.bluedotinnovation.com","Year":2013},{"Amount":null,"Area":"Atlanta","Categories":"FinTech and Financial Technology","Country":"USA","Founded":2007,"Funding Total":0,"Latitude":33.749099,"Longitude":-84.390185,"Name":"Bluefin Payment Systems","Status":"operating","Type":"debt_financing","Url":"http://www.Bluefin.com","Year":2014},{"Amount":null,"Area":"Chicago","Categories":"Credit, Credit Cards, and Consumer Lending|Financial Services|FinTech and Financial Technology|Payments and Mobile Payments|Payments and Mobile Payments","Country":"USA","Founded":2003,"Funding Total":0,"Latitude":41.875555,"Longitude":-87.624421,"Name":"Bluepay","Status":"operating","Type":"undisclosed","Url":"http://www.bluepay.com","Year":2013},{"Amount":18000000,"Area":"Boston","Categories":"Payments and Mobile Payments","Country":"USA","Founded":2002,"Funding Total":183000000,"Latitude":42.360482,"Longitude":-71.059568,"Name":"BlueSnap","Status":"operating","Type":"venture","Url":"http://home.bluesnap.com","Year":2008},